Heartbeat from system (system 1 component 0)
GLOBAL_POSITION_INT {time_boot_ms : 2324, lat : 0, lon : 0, alt : -20, relative_alt : -25, vx : 0, vy : 0, vz : 0, hdg : 0}
GLOBAL_POSITION_INT {time_boot_ms : 2573, lat : 0, lon : 0, alt : -20, relative_alt : -27, vx : 0, vy : 0, vz : 0, hdg : 34019}
GLOBAL_POSITION_INT {time_boot_ms : 3453, lat : 0, lon : 0, alt : -20, relative_alt : -27, vx : 0, vy : 0, vz : 0, hdg : 34019}
GLOBAL_POSITION_INT {time_boot_ms : 3703, lat : 0, lon : 0, alt : -20, relative_alt : -27, vx : 0, vy : 0, vz : 0, hdg : 34019}
GLOBAL_POSITION_INT {time_boot_ms : 3953, lat : 0, lon : 0, alt : -20, relative_alt : -27, vx : 0, vy : 0, vz : 0, hdg : 34019}
GLOBAL_POSITION_INT {time_boot_ms : 4203, lat : 0, lon : 0, alt : -20, relative_alt : -27, vx : 0, vy : 0, vz : 0, hdg : 34019}
GLOBAL_POSITION_INT {time_boot_ms : 4454, lat : 0, lon : 0, alt : -20, relative_alt : -27, vx : 0, vy : 0, vz : 3, hdg : 0}
GLOBAL_POSITION_INT {time_boot_ms : 4703, lat : 0, lon : 0, alt : -20, relative_alt : -27, vx : 0, vy : 0, vz : 7, hdg : 0}
GLOBAL_POSITION_INT {time_boot_ms : 4953, lat : 0, lon : 0, alt : -20, relative_alt : -27, vx : 0, vy : 0, vz : 8, hdg : 0}
GLOBAL_POSITION_INT {time_boot_ms : 5203, lat : 0, lon : 0, alt : -20, relative_alt : -27, vx : 0, vy : 0, vz : 8, hdg : 0}
GLOBAL_POSITION_INT {time_boot_ms : 5453, lat : 0, lon : 0, alt : -20, relative_alt : -27, vx : 0, vy : 0, vz : 8, hdg : 0}
GLOBAL_POSITION_INT {time_boot_ms : 5703, lat : 0, lon : 0, alt : -20, relative_alt : -27, vx : 0, vy : 0, vz : 7, hdg : 0}
GLOBAL_POSITION_INT {time_boot_ms : 5953, lat : 0, lon : 0, alt : -20, relative_alt : -27, vx : 0, vy : 0, vz : 6, hdg : 34020}
GLOBAL_POSITION_INT {time_boot_ms : 6203, lat : 0, lon : 0, alt : -20, relative_alt : -27, vx : 0, vy : 0, vz : 5, hdg : 34020}
GLOBAL_POSITION_INT {time_boot_ms : 6454, lat : 0, lon : 0, alt : -20, relative_alt : -27, vx : 0, vy : 0, vz : 4, hdg : 34020}
GLOBAL_POSITION_INT {time_boot_ms : 6703, lat : 0, lon : 0, alt : -20, relative_alt : -27, vx : 0, vy : 0, vz : 3, hdg : 34020}
GLOBAL_POSITION_INT {time_boot_ms : 6953, lat : 0, lon : 0, alt : -20, relative_alt : -27, vx : 0, vy : 0, vz : 2, hdg : 34020}
GLOBAL_POSITION_INT {time_boot_ms : 7203, lat : 0, lon : 0, alt : -20, relative_alt : -27, vx : 0, vy : 0, vz : 1, hdg : 34020}
GLOBAL_POSITION_INT {time_boot_ms : 7453, lat : 0, lon : 0, alt : -20, relative_alt : -27, vx : 0, vy : 0, vz : 0, hdg : 34020}
GLOBAL_POSITION_INT {time_boot_ms : 7703, lat : 0, lon : 0, alt : -20, relative_alt : -27, vx : 0, vy : 0, vz : 0, hdg : 34020}
GLOBAL_POSITION_INT {time_boot_ms : 7953, lat : 0, lon : 0, alt : -20, relative_alt : -27, vx : 0, vy : 0, vz : 0, hdg : 34020}
GLOBAL_POSITION_INT {time_boot_ms : 8203, lat : 0, lon : 0, alt : -20, relative_alt : -27, vx : 0, vy : 0, vz : -1, hdg : 34020}
GLOBAL_POSITION_INT {time_boot_ms : 8453, lat : 0, lon : 0, alt : -20, relative_alt : -27, vx : 0, vy : 0, vz : -2, hdg : 34020}
GLOBAL_POSITION_INT {time_boot_ms : 8704, lat : -353632621, lon : 1491652374, alt : 584090, relative_alt : -27, vx : 0, vy : 0, vz : -2, hdg : 34020}
GLOBAL_POSITION_INT {time_boot_ms : 8953, lat : -353632621, lon : 1491652374, alt : 584090, relative_alt : -27, vx : 0, vy : 0, vz : -3, hdg : 34137}
GLOBAL_POSITION_INT {time_boot_ms : 9203, lat : -353632621, lon : 1491652374, alt : 584090, relative_alt : -27, vx : 0, vy : 0, vz : -3, hdg : 34285}
GLOBAL_POSITION_INT {time_boot_ms : 9453, lat : -353632621, lon : 1491652374, alt : 584090, relative_alt : -27, vx : 0, vy : 0, vz : -3, hdg : 34421}
GLOBAL_POSITION_INT {time_boot_ms : 9703, lat : -353632621, lon : 1491652374, alt : 584090, relative_alt : -27, vx : 0, vy : 0, vz : -3, hdg : 34542}
GLOBAL_POSITION_INT {time_boot_ms : 9953, lat : -353632621, lon : 1491652374, alt : 584090, relative_alt : -27, vx : 0, vy : 0, vz : -3, hdg : 34659}
GLOBAL_POSITION_INT {time_boot_ms : 10203, lat : -353632621, lon : 1491652374, alt : 584090, relative_alt : -27, vx : 0, vy : 0, vz : -3, hdg : 34765}
GLOBAL_POSITION_INT {time_boot_ms : 10453, lat : -353632621, lon : 1491652374, alt : 584090, relative_alt : -27, vx : 0, vy : 0, vz : -3, hdg : 34864}
GLOBAL_POSITION_INT {time_boot_ms : 10704, lat : -353632621, lon : 1491652374, alt : 584090, relative_alt : -27, vx : 0, vy : 0, vz : -3, hdg : 34953}
GLOBAL_POSITION_INT {time_boot_ms : 10953, lat : -353632621, lon : 1491652374, alt : 584090, relative_alt : -27, vx : 0, vy : 0, vz : -3, hdg : 35036}
GLOBAL_POSITION_INT {time_boot_ms : 11203, lat : -353632621, lon : 1491652374, alt : 584090, relative_alt : -27, vx : 0, vy : 0, vz : -3, hdg : 35110}
GLOBAL_POSITION_INT {time_boot_ms : 11453, lat : -353632621, lon : 1491652374, alt : 584090, relative_alt : -27, vx : 0, vy : 0, vz : -3, hdg : 35178}
GLOBAL_POSITION_INT {time_boot_ms : 11703, lat : -353632621, lon : 1491652374, alt : 584090, relative_alt : -27, vx : 0, vy : 0, vz : -3, hdg : 35239}
GLOBAL_POSITION_INT {time_boot_ms : 11953, lat : -353632621, lon : 1491652374, alt : 584090, relative_alt : -27, vx : 0, vy : 0, vz : -2, hdg : 35293}
GLOBAL_POSITION_INT {time_boot_ms : 12203, lat : -353632621, lon : 1491652374, alt : 584090, relative_alt : -27, vx : 0, vy : 0, vz : -2, hdg : 35342}
GLOBAL_POSITION_INT {time_boot_ms : 12453, lat : -353632621, lon : 1491652374, alt : 584090, relative_alt : -27, vx : 0, vy : 0, vz : -2, hdg : 35385}
GLOBAL_POSITION_INT {time_boot_ms : 12704, lat : -353632621, lon : 1491652374, alt : 584090, relative_alt : -27, vx : 0, vy : 0, vz : -2, hdg : 35424}
GLOBAL_POSITION_INT {time_boot_ms : 12953, lat : -353632621, lon : 1491652374, alt : 584090, relative_alt : -27, vx : 0, vy : 0, vz : -2, hdg : 35458}
GLOBAL_POSITION_INT {time_boot_ms : 13203, lat : -353632621, lon : 1491652374, alt : 584090, relative_alt : -27, vx : 0, vy : 0, vz : -2, hdg : 35488}
GLOBAL_POSITION_INT {time_boot_ms : 13453, lat : -353632621, lon : 1491652374, alt : 584090, relative_alt : -27, vx : 0, vy : 0, vz : -1, hdg : 35514}
GLOBAL_POSITION_INT {time_boot_ms : 13703, lat : -353632621, lon : 1491652374, alt : 584090, relative_alt : -27, vx : 0, vy : 0, vz : -1, hdg : 35537}
GLOBAL_POSITION_INT {time_boot_ms : 13953, lat : -353632621, lon : 1491652374, alt : 584090, relative_alt : -27, vx : 0, vy : 0, vz : -1, hdg : 35557}
GLOBAL_POSITION_INT {time_boot_ms : 14203, lat : -353632621, lon : 1491652374, alt : 584090, relative_alt : -27, vx : 0, vy : 0, vz : -1, hdg : 35575}
GLOBAL_POSITION_INT {time_boot_ms : 14453, lat : -353632621, lon : 1491652374, alt : 584090, relative_alt : -27, vx : 0, vy : 0, vz : -1, hdg : 35589}
GLOBAL_POSITION_INT {time_boot_ms : 14703, lat : -353632621, lon : 1491652374, alt : 584090, relative_alt : -27, vx : 0, vy : 0, vz : -1, hdg : 35603}
GLOBAL_POSITION_INT {time_boot_ms : 14954, lat : -353632621, lon : 1491652374, alt : 584090, relative_alt : -27, vx : 0, vy : 0, vz : -1, hdg : 35614}
GLOBAL_POSITION_INT {time_boot_ms : 15203, lat : -353632621, lon : 1491652374, alt : 584090, relative_alt : -27, vx : 0, vy : 0, vz : -1, hdg : 35625}
GLOBAL_POSITION_INT {time_boot_ms : 15453, lat : -353632621, lon : 1491652374, alt : 584090, relative_alt : -27, vx : 0, vy : 0, vz : -1, hdg : 35632}
GLOBAL_POSITION_INT {time_boot_ms : 15703, lat : -353632621, lon : 1491652374, alt : 584090, relative_alt : -27, vx : 0, vy : 0, vz : -1, hdg : 35640}
GLOBAL_POSITION_INT {time_boot_ms : 15953, lat : -353632621, lon : 1491652374, alt : 584090, relative_alt : -27, vx : 0, vy : 0, vz : 0, hdg : 35645}
GLOBAL_POSITION_INT {time_boot_ms : 16203, lat : -353632621, lon : 1491652374, alt : 584090, relative_alt : -27, vx : 0, vy : 0, vz : 0, hdg : 35650}
GLOBAL_POSITION_INT {time_boot_ms : 16453, lat : -353632621, lon : 1491652374, alt : 584090, relative_alt : -27, vx : 0, vy : 0, vz : 0, hdg : 35654}
GLOBAL_POSITION_INT {time_boot_ms : 16703, lat : -353632621, lon : 1491652374, alt : 584090, relative_alt : -27, vx : 0, vy : 0, vz : 0, hdg : 35658}
GLOBAL_POSITION_INT {time_boot_ms : 16954, lat : -353632621, lon : 1491652374, alt : 584090, relative_alt : -27, vx : 0, vy : 0, vz : 0, hdg : 35660}
GLOBAL_POSITION_INT {time_boot_ms : 17203, lat : -353632621, lon : 1491652374, alt : 584090, relative_alt : -27, vx : 0, vy : 0, vz : 0, hdg : 35662}
GLOBAL_POSITION_INT {time_boot_ms : 17453, lat : -353632621, lon : 1491652374, alt : 584090, relative_alt : -27, vx : 0, vy : 0, vz : 0, hdg : 35662}
GLOBAL_POSITION_INT {time_boot_ms : 17703, lat : -353632621, lon : 1491652374, alt : 584090, relative_alt : -27, vx : 0, vy : 0, vz : 0, hdg : 35663}
GLOBAL_POSITION_INT {time_boot_ms : 17953, lat : -353632621, lon : 1491652374, alt : 584090, relative_alt : -27, vx : 0, vy : 0, vz : 0, hdg : 35663}
GLOBAL_POSITION_INT {time_boot_ms : 18203, lat : -353632621, lon : 1491652374, alt : 584090, relative_alt : -27, vx : 0, vy : 0, vz : 0, hdg : 35663}
GLOBAL_POSITION_INT {time_boot_ms : 18453, lat : -353632621, lon : 1491652374, alt : 584090, relative_alt : -27, vx : 0, vy : 0, vz : 0, hdg : 35662}
GLOBAL_POSITION_INT {time_boot_ms : 18703, lat : -353632621, lon : 1491652374, alt : 584090, relative_alt : -14, vx : 0, vy : 0, vz : 0, hdg : 35662}
GLOBAL_POSITION_INT {time_boot_ms : 18954, lat : -353632621, lon : 1491652374, alt : 584090, relative_alt : -6, vx : 0, vy : 0, vz : 0, hdg : 35660}
GLOBAL_POSITION_INT {time_boot_ms : 19203, lat : -353632621, lon : 1491652374, alt : 584090, relative_alt : -5, vx : 0, vy : 0, vz : 0, hdg : 35659}
GLOBAL_POSITION_INT {time_boot_ms : 19453, lat : -353632621, lon : 1491652374, alt : 584090, relative_alt : -6, vx : 0, vy : 0, vz : 0, hdg : 35657}
GLOBAL_POSITION_INT {time_boot_ms : 19703, lat : -353632621, lon : 1491652374, alt : 584090, relative_alt : -8, vx : 0, vy : 0, vz : 0, hdg : 35656}
GLOBAL_POSITION_INT {time_boot_ms : 19953, lat : -353632621, lon : 1491652374, alt : 584090, relative_alt : -10, vx : 0, vy : 0, vz : 0, hdg : 35653}
GLOBAL_POSITION_INT {time_boot_ms : 20203, lat : -353632621, lon : 1491652374, alt : 584090, relative_alt : -12, vx : 0, vy : 0, vz : 0, hdg : 35652}
GLOBAL_POSITION_INT {time_boot_ms : 20453, lat : -353632621, lon : 1491652374, alt : 584090, relative_alt : -14, vx : 0, vy : 0, vz : 0, hdg : 35649}
GLOBAL_POSITION_INT {time_boot_ms : 20703, lat : -353632621, lon : 1491652374, alt : 584090, relative_alt : -16, vx : 0, vy : 0, vz : 0, hdg : 35648}
GLOBAL_POSITION_INT {time_boot_ms : 20953, lat : -353632621, lon : 1491652374, alt : 584090, relative_alt : -17, vx : 0, vy : 0, vz : 0, hdg : 35645}
GLOBAL_POSITION_INT {time_boot_ms : 21204, lat : -353632621, lon : 1491652374, alt : 584090, relative_alt : -18, vx : 0, vy : 0, vz : 0, hdg : 35643}
GLOBAL_POSITION_INT {time_boot_ms : 21453, lat : -353632621, lon : 1491652374, alt : 584090, relative_alt : -19, vx : 0, vy : 0, vz : 0, hdg : 35640}
GLOBAL_POSITION_INT {time_boot_ms : 21703, lat : -353632621, lon : 1491652374, alt : 584090, relative_alt : -20, vx : 0, vy : 1, vz : 0, hdg : 35638}
GLOBAL_POSITION_INT {time_boot_ms : 21953, lat : -353632621, lon : 1491652374, alt : 584090, relative_alt : -21, vx : 0, vy : 1, vz : 0, hdg : 35635}
GLOBAL_POSITION_INT {time_boot_ms : 22203, lat : -353632621, lon : 1491652374, alt : 584090, relative_alt : -22, vx : 0, vy : 1, vz : 0, hdg : 35633}
GLOBAL_POSITION_INT {time_boot_ms : 22453, lat : -353632621, lon : 1491652374, alt : 584090, relative_alt : -23, vx : -1, vy : 1, vz : 0, hdg : 35630}
GLOBAL_POSITION_INT {time_boot_ms : 22703, lat : -353632621, lon : 1491652374, alt : 584090, relative_alt : -23, vx : -1, vy : 1, vz : 0, hdg : 35627}
GLOBAL_POSITION_INT {time_boot_ms : 22953, lat : -353632621, lon : 1491652374, alt : 584090, relative_alt : -24, vx : -1, vy : 1, vz : 0, hdg : 35624}
GLOBAL_POSITION_INT {time_boot_ms : 23204, lat : -353632621, lon : 1491652374, alt : 584090, relative_alt : -24, vx : -1, vy : 1, vz : 0, hdg : 35622}
GLOBAL_POSITION_INT {time_boot_ms : 23453, lat : -353632621, lon : 1491652374, alt : 584090, relative_alt : -25, vx : -1, vy : 1, vz : 0, hdg : 35619}
GLOBAL_POSITION_INT {time_boot_ms : 23703, lat : -353632621, lon : 1491652374, alt : 584090, relative_alt : -25, vx : -1, vy : 1, vz : 0, hdg : 35617}
GLOBAL_POSITION_INT {time_boot_ms : 23953, lat : -353632621, lon : 1491652374, alt : 584090, relative_alt : -25, vx : -1, vy : 1, vz : 0, hdg : 35614}
GLOBAL_POSITION_INT {time_boot_ms : 24203, lat : -353632621, lon : 1491652374, alt : 584090, relative_alt : -26, vx : -1, vy : 1, vz : 0, hdg : 35612}
GLOBAL_POSITION_INT {time_boot_ms : 24453, lat : -353632621, lon : 1491652374, alt : 584090, relative_alt : -26, vx : -1, vy : 1, vz : 0, hdg : 35609}
GLOBAL_POSITION_INT {time_boot_ms : 24703, lat : -353632621, lon : 1491652374, alt : 584090, relative_alt : -26, vx : -1, vy : 1, vz : 0, hdg : 35606}
GLOBAL_POSITION_INT {time_boot_ms : 24953, lat : -353632621, lon : 1491652374, alt : 584090, relative_alt : -26, vx : -1, vy : 1, vz : 0, hdg : 35603}
GLOBAL_POSITION_INT {time_boot_ms : 25204, lat : -353632621, lon : 1491652374, alt : 584090, relative_alt : -27, vx : -1, vy : 1, vz : 0, hdg : 35601}
GLOBAL_POSITION_INT {time_boot_ms : 25453, lat : -353632621, lon : 1491652374, alt : 584090, relative_alt : -27, vx : -1, vy : 1, vz : 0, hdg : 35598}
GLOBAL_POSITION_INT {time_boot_ms : 25703, lat : -353632621, lon : 1491652374, alt : 584090, relative_alt : -27, vx : -1, vy : 1, vz : 0, hdg : 35596}
GLOBAL_POSITION_INT {time_boot_ms : 25953, lat : -353632621, lon : 1491652374, alt : 584090, relative_alt : -27, vx : -1, vy : 1, vz : 0, hdg : 35593}
GLOBAL_POSITION_INT {time_boot_ms : 26203, lat : -353632621, lon : 1491652374, alt : 584090, relative_alt : -27, vx : -1, vy : 1, vz : 0, hdg : 35591}
GLOBAL_POSITION_INT {time_boot_ms : 26453, lat : -353632621, lon : 1491652374, alt : 584090, relative_alt : -27, vx : -1, vy : 1, vz : 0, hdg : 35588}
GLOBAL_POSITION_INT {time_boot_ms : 26703, lat : -353632621, lon : 1491652374, alt : 584090, relative_alt : -27, vx : -1, vy : 1, vz : 0, hdg : 35586}
GLOBAL_POSITION_INT {time_boot_ms : 26953, lat : -353632621, lon : 1491652374, alt : 584090, relative_alt : -27, vx : -1, vy : 1, vz : 0, hdg : 35583}
GLOBAL_POSITION_INT {time_boot_ms : 27203, lat : -353632621, lon : 1491652374, alt : 584090, relative_alt : -27, vx : -1, vy : 1, vz : 0, hdg : 35581}
GLOBAL_POSITION_INT {time_boot_ms : 27454, lat : -353632621, lon : 1491652374, alt : 584090, relative_alt : -27, vx : -1, vy : 1, vz : 0, hdg : 35578}
GLOBAL_POSITION_INT {time_boot_ms : 27703, lat : -353632621, lon : 1491652374, alt : 584090, relative_alt : -27, vx : -1, vy : 1, vz : 0, hdg : 35576}
GLOBAL_POSITION_INT {time_boot_ms : 27953, lat : -353632621, lon : 1491652374, alt : 584090, relative_alt : -27, vx : -1, vy : 1, vz : 0, hdg : 35574}
GLOBAL_POSITION_INT {time_boot_ms : 28203, lat : -353632621, lon : 1491652374, alt : 584090, relative_alt : -27, vx : -1, vy : 1, vz : 0, hdg : 35572}
GLOBAL_POSITION_INT {time_boot_ms : 28453, lat : -353632621, lon : 1491652374, alt : 584090, relative_alt : -27, vx : -1, vy : 1, vz : 0, hdg : 35569}
GLOBAL_POSITION_INT {time_boot_ms : 28703, lat : -353632621, lon : 1491652374, alt : 584090, relative_alt : -27, vx : -1, vy : 1, vz : 0, hdg : 35567}
GLOBAL_POSITION_INT {time_boot_ms : 28953, lat : -353632621, lon : 1491652374, alt : 584090, relative_alt : -27, vx : -1, vy : 1, vz : 0, hdg : 35565}
GLOBAL_POSITION_INT {time_boot_ms : 29203, lat : -353632621, lon : 1491652374, alt : 584090, relative_alt : -27, vx : -1, vy : 1, vz : 0, hdg : 35563}
GLOBAL_POSITION_INT {time_boot_ms : 29454, lat : -353632621, lon : 1491652374, alt : 584090, relative_alt : -27, vx : -1, vy : 1, vz : 0, hdg : 35560}
GLOBAL_POSITION_INT {time_boot_ms : 29703, lat : -353632621, lon : 1491652374, alt : 584090, relative_alt : -27, vx : -1, vy : 1, vz : 0, hdg : 35559}
GLOBAL_POSITION_INT {time_boot_ms : 29953, lat : -353632621, lon : 1491652374, alt : 584090, relative_alt : -27, vx : -1, vy : 1, vz : 0, hdg : 35556}
GLOBAL_POSITION_INT {time_boot_ms : 30203, lat : -353632621, lon : 1491652374, alt : 584090, relative_alt : -26, vx : -1, vy : 1, vz : 0, hdg : 35554}
GLOBAL_POSITION_INT {time_boot_ms : 30453, lat : -353632621, lon : 1491652374, alt : 584090, relative_alt : -26, vx : -1, vy : 2, vz : 0, hdg : 35552}
GLOBAL_POSITION_INT {time_boot_ms : 30703, lat : -353632621, lon : 1491652374, alt : 584090, relative_alt : -26, vx : -1, vy : 2, vz : 0, hdg : 35550}
GLOBAL_POSITION_INT {time_boot_ms : 30953, lat : -353632621, lon : 1491652374, alt : 584090, relative_alt : -26, vx : -1, vy : 2, vz : 0, hdg : 35548}
GLOBAL_POSITION_INT {time_boot_ms : 31203, lat : -353632621, lon : 1491652374, alt : 584090, relative_alt : -26, vx : -1, vy : 2, vz : 0, hdg : 35546}
GLOBAL_POSITION_INT {time_boot_ms : 31454, lat : -353632621, lon : 1491652374, alt : 584090, relative_alt : -26, vx : -1, vy : 2, vz : 0, hdg : 35544}
GLOBAL_POSITION_INT {time_boot_ms : 31703, lat : -353632621, lon : 1491652374, alt : 584090, relative_alt : -26, vx : -1, vy : 2, vz : 0, hdg : 35542}
GLOBAL_POSITION_INT {time_boot_ms : 31953, lat : -353632621, lon : 1491652374, alt : 584090, relative_alt : -26, vx : -1, vy : 2, vz : 0, hdg : 35540}
GLOBAL_POSITION_INT {time_boot_ms : 32203, lat : -353632621, lon : 1491652374, alt : 584090, relative_alt : -26, vx : -1, vy : 2, vz : 0, hdg : 35539}
GLOBAL_POSITION_INT {time_boot_ms : 32453, lat : -353632621, lon : 1491652374, alt : 584090, relative_alt : -26, vx : -1, vy : 2, vz : 0, hdg : 35537}
GLOBAL_POSITION_INT {time_boot_ms : 32703, lat : -353632621, lon : 1491652374, alt : 584090, relative_alt : -26, vx : -1, vy : 2, vz : 0, hdg : 35535}
GLOBAL_POSITION_INT {time_boot_ms : 32953, lat : -353632621, lon : 1491652374, alt : 584090, relative_alt : -26, vx : -1, vy : 2, vz : 0, hdg : 35533}
GLOBAL_POSITION_INT {time_boot_ms : 33203, lat : -353632621, lon : 1491652374, alt : 584090, relative_alt : -26, vx : -1, vy : 2, vz : 0, hdg : 35531}
GLOBAL_POSITION_INT {time_boot_ms : 33453, lat : -353632621, lon : 1491652374, alt : 584090, relative_alt : -26, vx : -1, vy : 2, vz : 0, hdg : 35529}
GLOBAL_POSITION_INT {time_boot_ms : 33704, lat : -353632621, lon : 1491652374, alt : 584090, relative_alt : -25, vx : -1, vy : 2, vz : 0, hdg : 35528}
GLOBAL_POSITION_INT {time_boot_ms : 33953, lat : -353632621, lon : 1491652374, alt : 584090, relative_alt : -25, vx : -1, vy : 2, vz : 0, hdg : 35526}
GLOBAL_POSITION_INT {time_boot_ms : 34203, lat : -353632621, lon : 1491652374, alt : 584090, relative_alt : -25, vx : -1, vy : 2, vz : 0, hdg : 35524}
GLOBAL_POSITION_INT {time_boot_ms : 34453, lat : -353632621, lon : 1491652374, alt : 584090, relative_alt : -25, vx : -2, vy : 2, vz : 0, hdg : 35522}
GLOBAL_POSITION_INT {time_boot_ms : 34703, lat : -353632621, lon : 1491652374, alt : 584090, relative_alt : -25, vx : -2, vy : 2, vz : 0, hdg : 35521}
GLOBAL_POSITION_INT {time_boot_ms : 34953, lat : -353632621, lon : 1491652374, alt : 584090, relative_alt : -25, vx : -2, vy : 2, vz : 0, hdg : 35519}
GLOBAL_POSITION_INT {time_boot_ms : 35203, lat : -353632621, lon : 1491652374, alt : 584090, relative_alt : -25, vx : -2, vy : 2, vz : 0, hdg : 35517}
GLOBAL_POSITION_INT {time_boot_ms : 35453, lat : -353632621, lon : 1491652374, alt : 584090, relative_alt : -25, vx : -2, vy : 2, vz : 0, hdg : 35516}
GLOBAL_POSITION_INT {time_boot_ms : 35704, lat : -353632621, lon : 1491652374, alt : 584090, relative_alt : -25, vx : -2, vy : 2, vz : 0, hdg : 35514}
GLOBAL_POSITION_INT {time_boot_ms : 35953, lat : -353632621, lon : 1491652374, alt : 584090, relative_alt : -25, vx : -2, vy : 2, vz : 0, hdg : 35512}
GLOBAL_POSITION_INT {time_boot_ms : 36203, lat : -353632621, lon : 1491652374, alt : 584090, relative_alt : -25, vx : -2, vy : 2, vz : 0, hdg : 35511}
GLOBAL_POSITION_INT {time_boot_ms : 36453, lat : -353632621, lon : 1491652374, alt : 584090, relative_alt : -25, vx : -2, vy : 2, vz : 0, hdg : 35509}
GLOBAL_POSITION_INT {time_boot_ms : 36703, lat : -353632621, lon : 1491652374, alt : 584090, relative_alt : -25, vx : -2, vy : 2, vz : 0, hdg : 35508}
GLOBAL_POSITION_INT {time_boot_ms : 36953, lat : -353632621, lon : 1491652374, alt : 584090, relative_alt : -25, vx : -2, vy : 2, vz : 0, hdg : 35506}
GLOBAL_POSITION_INT {time_boot_ms : 37203, lat : -353632621, lon : 1491652374, alt : 584090, relative_alt : -25, vx : -2, vy : 2, vz : 0, hdg : 35505}
GLOBAL_POSITION_INT {time_boot_ms : 37453, lat : -353632621, lon : 1491652374, alt : 584090, relative_alt : -25, vx : -2, vy : 2, vz : 0, hdg : 35503}
GLOBAL_POSITION_INT {time_boot_ms : 37704, lat : -353632621, lon : 1491652374, alt : 584090, relative_alt : -25, vx : -2, vy : 2, vz : 0, hdg : 35502}
GLOBAL_POSITION_INT {time_boot_ms : 37953, lat : -353632621, lon : 1491652374, alt : 584090, relative_alt : -25, vx : -2, vy : 2, vz : 0, hdg : 35501}
GLOBAL_POSITION_INT {time_boot_ms : 38203, lat : -353632621, lon : 1491652374, alt : 584090, relative_alt : -25, vx : -2, vy : 2, vz : 0, hdg : 35499}
GLOBAL_POSITION_INT {time_boot_ms : 38453, lat : -353632621, lon : 1491652374, alt : 584090, relative_alt : -25, vx : -2, vy : 2, vz : 0, hdg : 35498}
GLOBAL_POSITION_INT {time_boot_ms : 38703, lat : -353632621, lon : 1491652374, alt : 584090, relative_alt : -25, vx : -2, vy : 2, vz : 0, hdg : 35497}
GLOBAL_POSITION_INT {time_boot_ms : 38953, lat : -353632621, lon : 1491652374, alt : 584090, relative_alt : -25, vx : -2, vy : 2, vz : 0, hdg : 35495}
GLOBAL_POSITION_INT {time_boot_ms : 39203, lat : -353632621, lon : 1491652374, alt : 584090, relative_alt : -25, vx : -2, vy : 2, vz : 0, hdg : 35494}
GLOBAL_POSITION_INT {time_boot_ms : 39453, lat : -353632621, lon : 1491652374, alt : 584090, relative_alt : -25, vx : -2, vy : 2, vz : 0, hdg : 35492}
GLOBAL_POSITION_INT {time_boot_ms : 39703, lat : -353632621, lon : 1491652374, alt : 584090, relative_alt : -25, vx : -2, vy : 2, vz : 0, hdg : 35491}
GLOBAL_POSITION_INT {time_boot_ms : 39954, lat : -353632621, lon : 1491652374, alt : 584090, relative_alt : -25, vx : -2, vy : 2, vz : 0, hdg : 35490}
GLOBAL_POSITION_INT {time_boot_ms : 40203, lat : -353632621, lon : 1491652374, alt : 584090, relative_alt : -25, vx : -2, vy : 2, vz : 0, hdg : 35489}
GLOBAL_POSITION_INT {time_boot_ms : 40453, lat : -353632621, lon : 1491652374, alt : 584090, relative_alt : -25, vx : -2, vy : 2, vz : 0, hdg : 35487}
GLOBAL_POSITION_INT {time_boot_ms : 40703, lat : -353632621, lon : 1491652374, alt : 584090, relative_alt : -25, vx : -2, vy : 2, vz : 0, hdg : 35486}
GLOBAL_POSITION_INT {time_boot_ms : 40953, lat : -353632621, lon : 1491652374, alt : 584090, relative_alt : -25, vx : -2, vy : 2, vz : 0, hdg : 35485}
GLOBAL_POSITION_INT {time_boot_ms : 41203, lat : -353632621, lon : 1491652374, alt : 584090, relative_alt : -25, vx : -2, vy : 2, vz : 0, hdg : 35484}
GLOBAL_POSITION_INT {time_boot_ms : 41453, lat : -353632621, lon : 1491652374, alt : 584060, relative_alt : -25, vx : 0, vy : 0, vz : 0, hdg : 35482}
GLOBAL_POSITION_INT {time_boot_ms : 41703, lat : -353632621, lon : 1491652374, alt : 584060, relative_alt : -25, vx : 0, vy : 0, vz : 0, hdg : 35481}
GLOBAL_POSITION_INT {time_boot_ms : 41954, lat : -353632621, lon : 1491652374, alt : 584060, relative_alt : -26, vx : 0, vy : 0, vz : 0, hdg : 35480}
GLOBAL_POSITION_INT {time_boot_ms : 42203, lat : -353632621, lon : 1491652374, alt : 584060, relative_alt : -26, vx : 0, vy : 0, vz : 0, hdg : 35479}
GLOBAL_POSITION_INT {time_boot_ms : 42453, lat : -353632621, lon : 1491652374, alt : 584060, relative_alt : -26, vx : 0, vy : 0, vz : 0, hdg : 35477}
GLOBAL_POSITION_INT {time_boot_ms : 42703, lat : -353632621, lon : 1491652374, alt : 584060, relative_alt : -26, vx : 0, vy : 1, vz : 0, hdg : 35476}
GLOBAL_POSITION_INT {time_boot_ms : 42953, lat : -353632621, lon : 1491652374, alt : 584060, relative_alt : -26, vx : -1, vy : 1, vz : 0, hdg : 35475}
GLOBAL_POSITION_INT {time_boot_ms : 43203, lat : -353632621, lon : 1491652374, alt : 584060, relative_alt : -26, vx : -1, vy : 1, vz : 0, hdg : 35474}
GLOBAL_POSITION_INT {time_boot_ms : 43453, lat : -353632621, lon : 1491652374, alt : 584060, relative_alt : -26, vx : -1, vy : 1, vz : 0, hdg : 35473}
GLOBAL_POSITION_INT {time_boot_ms : 43703, lat : -353632621, lon : 1491652374, alt : 584060, relative_alt : -26, vx : -1, vy : 1, vz : 0, hdg : 35472}
GLOBAL_POSITION_INT {time_boot_ms : 43954, lat : -353632621, lon : 1491652374, alt : 584060, relative_alt : -26, vx : -1, vy : 1, vz : 0, hdg : 35471}
GLOBAL_POSITION_INT {time_boot_ms : 44203, lat : -353632621, lon : 1491652375, alt : 584060, relative_alt : -26, vx : -1, vy : 1, vz : 0, hdg : 35469}
GLOBAL_POSITION_INT {time_boot_ms : 44453, lat : -353632621, lon : 1491652375, alt : 584060, relative_alt : -26, vx : -1, vy : 2, vz : 0, hdg : 35468}
GLOBAL_POSITION_INT {time_boot_ms : 44703, lat : -353632621, lon : 1491652375, alt : 584060, relative_alt : -26, vx : -1, vy : 2, vz : 0, hdg : 35467}
GLOBAL_POSITION_INT {time_boot_ms : 44953, lat : -353632621, lon : 1491652375, alt : 584060, relative_alt : -26, vx : -1, vy : 2, vz : 0, hdg : 35466}
GLOBAL_POSITION_INT {time_boot_ms : 45203, lat : -353632622, lon : 1491652375, alt : 584060, relative_alt : -26, vx : -1, vy : 2, vz : 0, hdg : 35465}
GLOBAL_POSITION_INT {time_boot_ms : 45453, lat : -353632622, lon : 1491652375, alt : 584060, relative_alt : -26, vx : -1, vy : 2, vz : 0, hdg : 35464}
GLOBAL_POSITION_INT {time_boot_ms : 45703, lat : -353632622, lon : 1491652375, alt : 584060, relative_alt : -26, vx : -1, vy : 2, vz : 0, hdg : 35463}
GLOBAL_POSITION_INT {time_boot_ms : 45953, lat : -353632622, lon : 1491652375, alt : 584060, relative_alt : -26, vx : -1, vy : 1, vz : 0, hdg : 35462}
GLOBAL_POSITION_INT {time_boot_ms : 46204, lat : -353632622, lon : 1491652375, alt : 584060, relative_alt : -26, vx : -1, vy : 1, vz : 0, hdg : 35461}
GLOBAL_POSITION_INT {time_boot_ms : 46453, lat : -353632621, lon : 1491652375, alt : 584060, relative_alt : -26, vx : -1, vy : 1, vz : 0, hdg : 35460}
GLOBAL_POSITION_INT {time_boot_ms : 46704, lat : -353632621, lon : 1491652375, alt : 584060, relative_alt : 3, vx : -1, vy : 1, vz : 0, hdg : 35460}
GLOBAL_POSITION_INT {time_boot_ms : 46954, lat : -353632621, lon : 1491652375, alt : 584060, relative_alt : 3, vx : -1, vy : 1, vz : 0, hdg : 35459}
GLOBAL_POSITION_INT {time_boot_ms : 47204, lat : -353632621, lon : 1491652375, alt : 584060, relative_alt : 3, vx : -1, vy : 1, vz : 0, hdg : 35458}
GLOBAL_POSITION_INT {time_boot_ms : 47454, lat : -353632621, lon : 1491652375, alt : 584060, relative_alt : 3, vx : -1, vy : 1, vz : 0, hdg : 35457}
GLOBAL_POSITION_INT {time_boot_ms : 47704, lat : -353632621, lon : 1491652375, alt : 584060, relative_alt : 3, vx : 0, vy : 0, vz : 0, hdg : 35456}
GLOBAL_POSITION_INT {time_boot_ms : 47954, lat : -353632621, lon : 1491652375, alt : 584060, relative_alt : 3, vx : 0, vy : 0, vz : 0, hdg : 35456}
GLOBAL_POSITION_INT {time_boot_ms : 48204, lat : -353632621, lon : 1491652375, alt : 584060, relative_alt : 3, vx : 0, vy : 0, vz : 0, hdg : 35455}
GLOBAL_POSITION_INT {time_boot_ms : 48453, lat : -353632621, lon : 1491652375, alt : 584060, relative_alt : 3, vx : 0, vy : 0, vz : 0, hdg : 35454}
GLOBAL_POSITION_INT {time_boot_ms : 48703, lat : -353632621, lon : 1491652375, alt : 584060, relative_alt : 3, vx : 0, vy : 0, vz : 0, hdg : 35453}
GLOBAL_POSITION_INT {time_boot_ms : 48954, lat : -353632621, lon : 1491652375, alt : 584060, relative_alt : 3, vx : 0, vy : 0, vz : 0, hdg : 35453}
GLOBAL_POSITION_INT {time_boot_ms : 49204, lat : -353632621, lon : 1491652375, alt : 584060, relative_alt : 3, vx : 0, vy : 0, vz : 0, hdg : 35452}
GLOBAL_POSITION_INT {time_boot_ms : 49454, lat : -353632621, lon : 1491652375, alt : 584060, relative_alt : 3, vx : 0, vy : 0, vz : 0, hdg : 35451}
GLOBAL_POSITION_INT {time_boot_ms : 49704, lat : -353632621, lon : 1491652375, alt : 584060, relative_alt : 3, vx : 0, vy : 0, vz : 0, hdg : 35450}
GLOBAL_POSITION_INT {time_boot_ms : 49954, lat : -353632621, lon : 1491652375, alt : 584060, relative_alt : 3, vx : 0, vy : 0, vz : 0, hdg : 35449}
GLOBAL_POSITION_INT {time_boot_ms : 50204, lat : -353632621, lon : 1491652375, alt : 584060, relative_alt : 3, vx : 0, vy : 0, vz : 0, hdg : 35448}
GLOBAL_POSITION_INT {time_boot_ms : 50453, lat : -353632621, lon : 1491652375, alt : 584060, relative_alt : 3, vx : 0, vy : 0, vz : 0, hdg : 35447}
GLOBAL_POSITION_INT {time_boot_ms : 50703, lat : -353632621, lon : 1491652375, alt : 584060, relative_alt : 3, vx : 0, vy : 0, vz : 0, hdg : 35447}
GLOBAL_POSITION_INT {time_boot_ms : 50954, lat : -353632621, lon : 1491652375, alt : 584060, relative_alt : 3, vx : 0, vy : 0, vz : 0, hdg : 35446}
GLOBAL_POSITION_INT {time_boot_ms : 51204, lat : -353632621, lon : 1491652375, alt : 584060, relative_alt : 3, vx : 0, vy : 0, vz : 0, hdg : 35445}
GLOBAL_POSITION_INT {time_boot_ms : 51454, lat : -353632621, lon : 1491652375, alt : 584060, relative_alt : 3, vx : 0, vy : 0, vz : 0, hdg : 35444}
GLOBAL_POSITION_INT {time_boot_ms : 51704, lat : -353632621, lon : 1491652375, alt : 584060, relative_alt : 3, vx : 0, vy : 0, vz : 0, hdg : 35443}
GLOBAL_POSITION_INT {time_boot_ms : 51954, lat : -353632621, lon : 1491652375, alt : 584060, relative_alt : 3, vx : 0, vy : 0, vz : 0, hdg : 35442}
GLOBAL_POSITION_INT {time_boot_ms : 52204, lat : -353632621, lon : 1491652375, alt : 584060, relative_alt : 3, vx : 0, vy : 0, vz : 0, hdg : 35441}
GLOBAL_POSITION_INT {time_boot_ms : 52454, lat : -353632621, lon : 1491652375, alt : 584060, relative_alt : 7, vx : 0, vy : 0, vz : -6, hdg : 35440}
GLOBAL_POSITION_INT {time_boot_ms : 52703, lat : -353632621, lon : 1491652375, alt : 584100, relative_alt : 41, vx : 0, vy : 1, vz : -20, hdg : 35439}
GLOBAL_POSITION_INT {time_boot_ms : 52954, lat : -353632621, lon : 1491652375, alt : 584170, relative_alt : 110, vx : 0, vy : 1, vz : -35, hdg : 35438}
GLOBAL_POSITION_INT {time_boot_ms : 53204, lat : -353632621, lon : 1491652375, alt : 584350, relative_alt : 297, vx : 0, vy : 0, vz : -117, hdg : 35437}
GLOBAL_POSITION_INT {time_boot_ms : 53454, lat : -353632621, lon : 1491652375, alt : 584650, relative_alt : 590, vx : 0, vy : 0, vz : -114, hdg : 35438}
GLOBAL_POSITION_INT {time_boot_ms : 53704, lat : -353632621, lon : 1491652375, alt : 584940, relative_alt : 889, vx : 0, vy : 0, vz : -125, hdg : 35439}
GLOBAL_POSITION_INT {time_boot_ms : 53954, lat : -353632621, lon : 1491652374, alt : 585300, relative_alt : 1248, vx : 0, vy : 0, vz : -150, hdg : 35440}
GLOBAL_POSITION_INT {time_boot_ms : 54204, lat : -353632621, lon : 1491652373, alt : 585730, relative_alt : 1670, vx : 0, vy : 0, vz : -175, hdg : 35441}
GLOBAL_POSITION_INT {time_boot_ms : 54454, lat : -353632621, lon : 1491652373, alt : 586210, relative_alt : 2154, vx : 0, vy : 0, vz : -200, hdg : 35441}
GLOBAL_POSITION_INT {time_boot_ms : 54703, lat : -353632620, lon : 1491652373, alt : 586760, relative_alt : 2707, vx : 0, vy : 0, vz : -226, hdg : 35441}
GLOBAL_POSITION_INT {time_boot_ms : 54953, lat : -353632620, lon : 1491652372, alt : 587370, relative_alt : 3313, vx : 0, vy : 1, vz : -244, hdg : 35269}
GLOBAL_POSITION_INT {time_boot_ms : 55204, lat : -353632620, lon : 1491652372, alt : 588000, relative_alt : 3948, vx : -1, vy : 1, vz : -250, hdg : 35271}
GLOBAL_POSITION_INT {time_boot_ms : 55454, lat : -353632620, lon : 1491652372, alt : 588640, relative_alt : 4588, vx : -1, vy : 1, vz : -250, hdg : 35273}
GLOBAL_POSITION_INT {time_boot_ms : 55704, lat : -353632620, lon : 1491652372, alt : 589280, relative_alt : 5226, vx : -1, vy : 2, vz : -248, hdg : 35274}
GLOBAL_POSITION_INT {time_boot_ms : 55954, lat : -353632620, lon : 1491652372, alt : 589920, relative_alt : 5860, vx : -1, vy : 2, vz : -245, hdg : 35274}
GLOBAL_POSITION_INT {time_boot_ms : 56204, lat : -353632620, lon : 1491652372, alt : 590540, relative_alt : 6488, vx : -1, vy : 2, vz : -243, hdg : 35273}
GLOBAL_POSITION_INT {time_boot_ms : 56454, lat : -353632620, lon : 1491652372, alt : 591170, relative_alt : 7111, vx : -1, vy : 2, vz : -242, hdg : 35272}
GLOBAL_POSITION_INT {time_boot_ms : 56703, lat : -353632620, lon : 1491652372, alt : 591790, relative_alt : 7733, vx : -1, vy : 2, vz : -242, hdg : 35270}
GLOBAL_POSITION_INT {time_boot_ms : 56953, lat : -353632620, lon : 1491652372, alt : 592410, relative_alt : 8358, vx : -1, vy : 2, vz : -242, hdg : 35268}
GLOBAL_POSITION_INT {time_boot_ms : 57204, lat : -353632620, lon : 1491652372, alt : 593040, relative_alt : 8981, vx : -1, vy : 2, vz : -242, hdg : 35267}
GLOBAL_POSITION_INT {time_boot_ms : 57454, lat : -353632620, lon : 1491652372, alt : 593660, relative_alt : 9606, vx : -1, vy : 2, vz : -242, hdg : 35268}
GLOBAL_POSITION_INT {time_boot_ms : 57704, lat : -353632620, lon : 1491652372, alt : 594290, relative_alt : 10230, vx : -1, vy : 2, vz : -242, hdg : 35270}
GLOBAL_POSITION_INT {time_boot_ms : 57954, lat : -353632620, lon : 1491652372, alt : 594910, relative_alt : 10856, vx : -1, vy : 2, vz : -242, hdg : 35272}
GLOBAL_POSITION_INT {time_boot_ms : 58204, lat : -353632620, lon : 1491652372, alt : 595540, relative_alt : 11481, vx : -1, vy : 2, vz : -242, hdg : 35273}
GLOBAL_POSITION_INT {time_boot_ms : 58454, lat : -353632620, lon : 1491652373, alt : 596160, relative_alt : 12103, vx : -1, vy : 2, vz : -242, hdg : 35274}
GLOBAL_POSITION_INT {time_boot_ms : 58704, lat : -353632620, lon : 1491652373, alt : 596780, relative_alt : 12727, vx : -1, vy : 1, vz : -242, hdg : 35273}
GLOBAL_POSITION_INT {time_boot_ms : 58953, lat : -353632620, lon : 1491652373, alt : 597410, relative_alt : 13354, vx : -1, vy : 1, vz : -242, hdg : 35270}
GLOBAL_POSITION_INT {time_boot_ms : 59204, lat : -353632620, lon : 1491652373, alt : 598040, relative_alt : 13980, vx : -1, vy : 1, vz : -242, hdg : 35268}
GLOBAL_POSITION_INT {time_boot_ms : 59454, lat : -353632620, lon : 1491652374, alt : 598660, relative_alt : 14601, vx : -1, vy : 1, vz : -243, hdg : 35267}
GLOBAL_POSITION_INT {time_boot_ms : 59704, lat : -353632620, lon : 1491652374, alt : 599280, relative_alt : 15221, vx : -1, vy : 0, vz : -243, hdg : 35268}
GLOBAL_POSITION_INT {time_boot_ms : 59954, lat : -353632620, lon : 1491652374, alt : 599900, relative_alt : 15842, vx : -1, vy : 0, vz : -243, hdg : 35270}
GLOBAL_POSITION_INT {time_boot_ms : 60204, lat : -353632620, lon : 1491652374, alt : 600520, relative_alt : 16464, vx : 0, vy : 0, vz : -244, hdg : 35271}
GLOBAL_POSITION_INT {time_boot_ms : 60454, lat : -353632620, lon : 1491652374, alt : 601140, relative_alt : 17086, vx : 0, vy : 0, vz : -244, hdg : 35269}
GLOBAL_POSITION_INT {time_boot_ms : 60704, lat : -353632620, lon : 1491652374, alt : 601760, relative_alt : 17707, vx : 0, vy : 0, vz : -244, hdg : 35269}
GLOBAL_POSITION_INT {time_boot_ms : 60953, lat : -353632620, lon : 1491652374, alt : 602390, relative_alt : 18333, vx : 0, vy : 0, vz : -244, hdg : 35270}
GLOBAL_POSITION_INT {time_boot_ms : 61203, lat : -353632620, lon : 1491652374, alt : 603010, relative_alt : 18957, vx : 0, vy : 0, vz : -244, hdg : 35271}
GLOBAL_POSITION_INT {time_boot_ms : 61454, lat : -353632620, lon : 1491652374, alt : 603640, relative_alt : 19583, vx : 0, vy : 0, vz : -245, hdg : 35271}
GLOBAL_POSITION_INT {time_boot_ms : 61704, lat : -353632620, lon : 1491652374, alt : 604260, relative_alt : 20207, vx : 0, vy : 0, vz : -245, hdg : 35271}
GLOBAL_POSITION_INT {time_boot_ms : 61954, lat : -353632620, lon : 1491652374, alt : 604890, relative_alt : 20832, vx : 0, vy : 0, vz : -245, hdg : 35270}
GLOBAL_POSITION_INT {time_boot_ms : 62204, lat : -353632620, lon : 1491652374, alt : 605510, relative_alt : 21456, vx : -1, vy : 1, vz : -245, hdg : 35270}
GLOBAL_POSITION_INT {time_boot_ms : 62454, lat : -353632620, lon : 1491652374, alt : 606140, relative_alt : 22080, vx : -1, vy : 1, vz : -245, hdg : 35269}
GLOBAL_POSITION_INT {time_boot_ms : 62704, lat : -353632620, lon : 1491652373, alt : 606760, relative_alt : 22702, vx : -1, vy : 1, vz : -245, hdg : 35269}
GLOBAL_POSITION_INT {time_boot_ms : 62953, lat : -353632620, lon : 1491652373, alt : 607380, relative_alt : 23326, vx : -1, vy : 1, vz : -245, hdg : 35269}
GLOBAL_POSITION_INT {time_boot_ms : 63203, lat : -353632620, lon : 1491652373, alt : 608010, relative_alt : 23954, vx : -1, vy : 1, vz : -245, hdg : 35269}
GLOBAL_POSITION_INT {time_boot_ms : 63454, lat : -353632620, lon : 1491652373, alt : 608640, relative_alt : 24583, vx : -1, vy : 1, vz : -245, hdg : 35269}
GLOBAL_POSITION_INT {time_boot_ms : 63704, lat : -353632620, lon : 1491652372, alt : 609260, relative_alt : 25209, vx : -1, vy : 2, vz : -245, hdg : 35269}
GLOBAL_POSITION_INT {time_boot_ms : 63954, lat : -353632620, lon : 1491652372, alt : 609890, relative_alt : 25834, vx : -1, vy : 2, vz : -245, hdg : 35270}
GLOBAL_POSITION_INT {time_boot_ms : 64204, lat : -353632620, lon : 1491652372, alt : 610510, relative_alt : 26456, vx : -1, vy : 2, vz : -245, hdg : 35270}
GLOBAL_POSITION_INT {time_boot_ms : 64454, lat : -353632620, lon : 1491652372, alt : 611130, relative_alt : 27077, vx : -1, vy : 2, vz : -245, hdg : 35270}
GLOBAL_POSITION_INT {time_boot_ms : 64704, lat : -353632620, lon : 1491652372, alt : 611750, relative_alt : 27697, vx : -1, vy : 2, vz : -245, hdg : 35269}
GLOBAL_POSITION_INT {time_boot_ms : 64954, lat : -353632620, lon : 1491652372, alt : 612370, relative_alt : 28319, vx : -1, vy : 2, vz : -245, hdg : 35269}
GLOBAL_POSITION_INT {time_boot_ms : 65203, lat : -353632620, lon : 1491652372, alt : 613000, relative_alt : 28944, vx : -1, vy : 2, vz : -245, hdg : 35269}
GLOBAL_POSITION_INT {time_boot_ms : 65454, lat : -353632620, lon : 1491652372, alt : 613620, relative_alt : 29568, vx : -1, vy : 2, vz : -246, hdg : 35270}
GLOBAL_POSITION_INT {time_boot_ms : 65704, lat : -353632620, lon : 1491652372, alt : 614250, relative_alt : 30192, vx : -1, vy : 2, vz : -246, hdg : 35270}
GLOBAL_POSITION_INT {time_boot_ms : 65954, lat : -353632620, lon : 1491652372, alt : 614870, relative_alt : 30817, vx : -1, vy : 2, vz : -246, hdg : 35269}
GLOBAL_POSITION_INT {time_boot_ms : 66204, lat : -353632620, lon : 1491652372, alt : 615500, relative_alt : 31441, vx : -1, vy : 2, vz : -246, hdg : 35268}
GLOBAL_POSITION_INT {time_boot_ms : 66454, lat : -353632620, lon : 1491652372, alt : 616120, relative_alt : 32066, vx : -1, vy : 2, vz : -246, hdg : 35268}
GLOBAL_POSITION_INT {time_boot_ms : 66704, lat : -353632620, lon : 1491652372, alt : 616750, relative_alt : 32690, vx : -1, vy : 2, vz : -246, hdg : 35267}
GLOBAL_POSITION_INT {time_boot_ms : 66954, lat : -353632620, lon : 1491652372, alt : 617370, relative_alt : 33314, vx : -1, vy : 2, vz : -246, hdg : 35268}
GLOBAL_POSITION_INT {time_boot_ms : 67203, lat : -353632620, lon : 1491652372, alt : 618000, relative_alt : 33940, vx : -2, vy : 2, vz : -246, hdg : 35268}
GLOBAL_POSITION_INT {time_boot_ms : 67453, lat : -353632620, lon : 1491652372, alt : 618610, relative_alt : 34559, vx : -2, vy : 2, vz : -240, hdg : 35269}
GLOBAL_POSITION_INT {time_boot_ms : 67704, lat : -353632619, lon : 1491652372, alt : 619210, relative_alt : 35158, vx : -2, vy : 2, vz : -230, hdg : 35271}
GLOBAL_POSITION_INT {time_boot_ms : 67954, lat : -353632619, lon : 1491652372, alt : 619780, relative_alt : 35728, vx : -2, vy : 2, vz : -216, hdg : 35272}
GLOBAL_POSITION_INT {time_boot_ms : 68204, lat : -353632619, lon : 1491652372, alt : 620320, relative_alt : 36262, vx : -2, vy : 2, vz : -202, hdg : 35272}
GLOBAL_POSITION_INT {time_boot_ms : 68454, lat : -353632619, lon : 1491652372, alt : 620810, relative_alt : 36758, vx : -2, vy : 2, vz : -187, hdg : 35272}
GLOBAL_POSITION_INT {time_boot_ms : 68704, lat : -353632619, lon : 1491652372, alt : 621270, relative_alt : 37218, vx : -2, vy : 2, vz : -173, hdg : 35271}
GLOBAL_POSITION_INT {time_boot_ms : 68954, lat : -353632619, lon : 1491652372, alt : 621700, relative_alt : 37642, vx : -2, vy : 2, vz : -160, hdg : 35270}
GLOBAL_POSITION_INT {time_boot_ms : 69203, lat : -353632619, lon : 1491652372, alt : 622090, relative_alt : 38032, vx : -2, vy : 2, vz : -147, hdg : 35269}
GLOBAL_POSITION_INT {time_boot_ms : 69453, lat : -353632620, lon : 1491652373, alt : 622440, relative_alt : 38389, vx : -2, vy : 2, vz : -134, hdg : 35268}
GLOBAL_POSITION_INT {time_boot_ms : 69704, lat : -353632620, lon : 1491652373, alt : 622770, relative_alt : 38712, vx : -2, vy : 1, vz : -120, hdg : 35269}
GLOBAL_POSITION_INT {time_boot_ms : 69954, lat : -353632620, lon : 1491652373, alt : 623060, relative_alt : 39000, vx : -1, vy : 1, vz : -107, hdg : 35269}
GLOBAL_POSITION_INT {time_boot_ms : 70204, lat : -353632620, lon : 1491652373, alt : 623310, relative_alt : 39253, vx : -1, vy : 1, vz : -94, hdg : 35270}
GLOBAL_POSITION_INT {time_boot_ms : 70454, lat : -353632620, lon : 1491652373, alt : 623530, relative_alt : 39471, vx : -1, vy : 1, vz : -81, hdg : 35270}
GLOBAL_POSITION_INT {time_boot_ms : 70704, lat : -353632620, lon : 1491652373, alt : 623710, relative_alt : 39655, vx : -1, vy : 1, vz : -67, hdg : 35269}
GLOBAL_POSITION_INT {time_boot_ms : 70954, lat : -353632620, lon : 1491652373, alt : 623860, relative_alt : 39803, vx : -1, vy : 1, vz : -53, hdg : 35269}
GLOBAL_POSITION_INT {time_boot_ms : 71204, lat : -353632620, lon : 1491652373, alt : 623970, relative_alt : 39913, vx : -1, vy : 1, vz : -37, hdg : 35269}
GLOBAL_POSITION_INT {time_boot_ms : 71453, lat : -353632620, lon : 1491652373, alt : 624040, relative_alt : 39982, vx : -1, vy : 1, vz : -20, hdg : 35269}
GLOBAL_POSITION_INT {time_boot_ms : 71704, lat : -353632620, lon : 1491652373, alt : 624060, relative_alt : 40008, vx : -1, vy : 1, vz : -5, hdg : 35269}
GLOBAL_POSITION_INT {time_boot_ms : 71954, lat : -353632620, lon : 1491652373, alt : 624060, relative_alt : 40004, vx : -1, vy : 1, vz : 2, hdg : 35269}
GLOBAL_POSITION_INT {time_boot_ms : 72204, lat : -353632620, lon : 1491652373, alt : 624040, relative_alt : 39987, vx : -1, vy : 1, vz : 4, hdg : 35269}
GLOBAL_POSITION_INT {time_boot_ms : 72454, lat : -353632620, lon : 1491652373, alt : 624020, relative_alt : 39969, vx : -1, vy : 1, vz : 3, hdg : 35270}
GLOBAL_POSITION_INT {time_boot_ms : 72704, lat : -353632620, lon : 1491652373, alt : 624010, relative_alt : 39957, vx : -1, vy : 1, vz : 0, hdg : 35270}
GLOBAL_POSITION_INT {time_boot_ms : 72954, lat : -353632620, lon : 1491652373, alt : 624010, relative_alt : 39951, vx : -1, vy : 1, vz : -2, hdg : 35270}
GLOBAL_POSITION_INT {time_boot_ms : 73204, lat : -353632620, lon : 1491652373, alt : 624010, relative_alt : 39951, vx : -1, vy : 1, vz : -3, hdg : 35270}
GLOBAL_POSITION_INT {time_boot_ms : 73453, lat : -353632620, lon : 1491652373, alt : 624010, relative_alt : 39951, vx : -1, vy : 1, vz : -4, hdg : 35270}
GLOBAL_POSITION_INT {time_boot_ms : 73703, lat : -353632620, lon : 1491652373, alt : 624010, relative_alt : 39950, vx : -1, vy : 1, vz : -4, hdg : 35269}
GLOBAL_POSITION_INT {time_boot_ms : 73954, lat : -353632620, lon : 1491652373, alt : 624000, relative_alt : 39949, vx : -1, vy : 1, vz : -4, hdg : 35270}
GLOBAL_POSITION_INT {time_boot_ms : 74204, lat : -353632620, lon : 1491652373, alt : 624000, relative_alt : 39949, vx : -1, vy : 1, vz : -4, hdg : 35271}
GLOBAL_POSITION_INT {time_boot_ms : 74454, lat : -353632620, lon : 1491652373, alt : 624010, relative_alt : 39955, vx : 3, vy : 5, vz : -12, hdg : 35263}
GLOBAL_POSITION_INT {time_boot_ms : 74704, lat : -353632617, lon : 1491652377, alt : 624060, relative_alt : 40005, vx : 31, vy : 30, vz : -36, hdg : 35200}
GLOBAL_POSITION_INT {time_boot_ms : 74954, lat : -353632604, lon : 1491652391, alt : 624180, relative_alt : 40122, vx : 83, vy : 76, vz : -65, hdg : 35234}
GLOBAL_POSITION_INT {time_boot_ms : 75204, lat : -353632579, lon : 1491652417, alt : 624370, relative_alt : 40312, vx : 134, vy : 121, vz : -94, hdg : 35900}
GLOBAL_POSITION_INT {time_boot_ms : 75453, lat : -353632543, lon : 1491652455, alt : 624630, relative_alt : 40575, vx : 181, vy : 162, vz : -121, hdg : 1335}
GLOBAL_POSITION_INT {time_boot_ms : 75703, lat : -353632497, lon : 1491652505, alt : 624960, relative_alt : 40908, vx : 225, vy : 203, vz : -147, hdg : 3344}
GLOBAL_POSITION_INT {time_boot_ms : 75954, lat : -353632442, lon : 1491652565, alt : 625360, relative_alt : 41306, vx : 269, vy : 242, vz : -172, hdg : 5236}
GLOBAL_POSITION_INT {time_boot_ms : 76204, lat : -353632376, lon : 1491652636, alt : 625820, relative_alt : 41764, vx : 314, vy : 281, vz : -196, hdg : 6323}
GLOBAL_POSITION_INT {time_boot_ms : 76454, lat : -353632301, lon : 1491652718, alt : 626340, relative_alt : 42284, vx : 359, vy : 320, vz : -220, hdg : 6498}
GLOBAL_POSITION_INT {time_boot_ms : 76704, lat : -353632216, lon : 1491652811, alt : 626920, relative_alt : 42866, vx : 403, vy : 358, vz : -242, hdg : 5977}
GLOBAL_POSITION_INT {time_boot_ms : 76954, lat : -353632121, lon : 1491652914, alt : 627550, relative_alt : 43491, vx : 445, vy : 394, vz : -253, hdg : 5038}
GLOBAL_POSITION_INT {time_boot_ms : 77204, lat : -353632018, lon : 1491653026, alt : 628190, relative_alt : 44134, vx : 472, vy : 419, vz : -256, hdg : 4017}
GLOBAL_POSITION_INT {time_boot_ms : 77454, lat : -353631910, lon : 1491653143, alt : 628840, relative_alt : 44782, vx : 485, vy : 434, vz : -255, hdg : 3288}
GLOBAL_POSITION_INT {time_boot_ms : 77703, lat : -353631800, lon : 1491653264, alt : 629480, relative_alt : 45427, vx : 494, vy : 445, vz : -252, hdg : 3043}
GLOBAL_POSITION_INT {time_boot_ms : 77954, lat : -353631688, lon : 1491653388, alt : 630120, relative_alt : 46065, vx : 502, vy : 452, vz : -249, hdg : 3245}
GLOBAL_POSITION_INT {time_boot_ms : 78204, lat : -353631574, lon : 1491653514, alt : 630750, relative_alt : 46697, vx : 510, vy : 458, vz : -247, hdg : 3729}
GLOBAL_POSITION_INT {time_boot_ms : 78454, lat : -353631458, lon : 1491653640, alt : 631380, relative_alt : 47326, vx : 519, vy : 461, vz : -245, hdg : 4272}
GLOBAL_POSITION_INT {time_boot_ms : 78704, lat : -353631340, lon : 1491653768, alt : 632010, relative_alt : 47952, vx : 527, vy : 465, vz : -244, hdg : 4652}
GLOBAL_POSITION_INT {time_boot_ms : 78954, lat : -353631220, lon : 1491653897, alt : 632630, relative_alt : 48578, vx : 535, vy : 468, vz : -244, hdg : 4756}
GLOBAL_POSITION_INT {time_boot_ms : 79204, lat : -353631099, lon : 1491654027, alt : 633260, relative_alt : 49203, vx : 540, vy : 472, vz : -244, hdg : 4601}
GLOBAL_POSITION_INT {time_boot_ms : 79454, lat : -353630977, lon : 1491654158, alt : 633880, relative_alt : 49826, vx : 543, vy : 475, vz : -244, hdg : 4305}
GLOBAL_POSITION_INT {time_boot_ms : 79703, lat : -353630854, lon : 1491654290, alt : 634510, relative_alt : 50454, vx : 545, vy : 479, vz : -244, hdg : 4010}
GLOBAL_POSITION_INT {time_boot_ms : 79953, lat : -353630731, lon : 1491654423, alt : 635140, relative_alt : 51081, vx : 545, vy : 482, vz : -244, hdg : 3833}
GLOBAL_POSITION_INT {time_boot_ms : 80204, lat : -353630608, lon : 1491654557, alt : 635760, relative_alt : 51708, vx : 545, vy : 484, vz : -244, hdg : 3818}
GLOBAL_POSITION_INT {time_boot_ms : 80454, lat : -353630486, lon : 1491654690, alt : 636390, relative_alt : 52331, vx : 545, vy : 485, vz : -244, hdg : 3936}
GLOBAL_POSITION_INT {time_boot_ms : 80704, lat : -353630363, lon : 1491654823, alt : 637010, relative_alt : 52953, vx : 546, vy : 484, vz : -244, hdg : 4110}
GLOBAL_POSITION_INT {time_boot_ms : 80954, lat : -353630240, lon : 1491654957, alt : 637630, relative_alt : 53577, vx : 546, vy : 483, vz : -244, hdg : 4262}
GLOBAL_POSITION_INT {time_boot_ms : 81204, lat : -353630118, lon : 1491655090, alt : 638260, relative_alt : 54200, vx : 546, vy : 481, vz : -244, hdg : 4337}
GLOBAL_POSITION_INT {time_boot_ms : 81454, lat : -353629995, lon : 1491655222, alt : 638880, relative_alt : 54821, vx : 545, vy : 480, vz : -244, hdg : 4322}
GLOBAL_POSITION_INT {time_boot_ms : 81703, lat : -353629873, lon : 1491655354, alt : 639500, relative_alt : 55446, vx : 544, vy : 479, vz : -244, hdg : 4242}
GLOBAL_POSITION_INT {time_boot_ms : 81953, lat : -353629750, lon : 1491655487, alt : 640130, relative_alt : 56074, vx : 542, vy : 478, vz : -244, hdg : 4141}
GLOBAL_POSITION_INT {time_boot_ms : 82204, lat : -353629628, lon : 1491655620, alt : 640760, relative_alt : 56701, vx : 540, vy : 478, vz : -244, hdg : 4064}
GLOBAL_POSITION_INT {time_boot_ms : 82454, lat : -353629506, lon : 1491655752, alt : 641380, relative_alt : 57326, vx : 539, vy : 477, vz : -244, hdg : 4036}
GLOBAL_POSITION_INT {time_boot_ms : 82704, lat : -353629385, lon : 1491655884, alt : 642010, relative_alt : 57951, vx : 538, vy : 476, vz : -244, hdg : 4057}
GLOBAL_POSITION_INT {time_boot_ms : 82954, lat : -353629264, lon : 1491656015, alt : 642630, relative_alt : 58577, vx : 537, vy : 475, vz : -244, hdg : 4108}
GLOBAL_POSITION_INT {time_boot_ms : 83204, lat : -353629143, lon : 1491656147, alt : 643260, relative_alt : 59201, vx : 536, vy : 473, vz : -244, hdg : 4164}
GLOBAL_POSITION_INT {time_boot_ms : 83454, lat : -353629022, lon : 1491656277, alt : 643880, relative_alt : 59824, vx : 535, vy : 472, vz : -244, hdg : 4201}
GLOBAL_POSITION_INT {time_boot_ms : 83704, lat : -353628902, lon : 1491656408, alt : 644500, relative_alt : 60448, vx : 535, vy : 472, vz : -244, hdg : 4209}
GLOBAL_POSITION_INT {time_boot_ms : 83953, lat : -353628781, lon : 1491656538, alt : 645130, relative_alt : 61076, vx : 534, vy : 471, vz : -244, hdg : 4190}
GLOBAL_POSITION_INT {time_boot_ms : 84204, lat : -353628660, lon : 1491656669, alt : 645760, relative_alt : 61706, vx : 534, vy : 471, vz : -244, hdg : 4158}
GLOBAL_POSITION_INT {time_boot_ms : 84454, lat : -353628540, lon : 1491656800, alt : 646390, relative_alt : 62332, vx : 533, vy : 471, vz : -244, hdg : 4129}
GLOBAL_POSITION_INT {time_boot_ms : 84704, lat : -353628420, lon : 1491656930, alt : 647010, relative_alt : 62959, vx : 533, vy : 470, vz : -243, hdg : 4113}
GLOBAL_POSITION_INT {time_boot_ms : 84954, lat : -353628300, lon : 1491657060, alt : 647640, relative_alt : 63583, vx : 532, vy : 470, vz : -243, hdg : 4113}
GLOBAL_POSITION_INT {time_boot_ms : 85204, lat : -353628180, lon : 1491657190, alt : 648260, relative_alt : 64204, vx : 532, vy : 470, vz : -243, hdg : 4127}
GLOBAL_POSITION_INT {time_boot_ms : 85454, lat : -353628061, lon : 1491657319, alt : 648880, relative_alt : 64825, vx : 532, vy : 470, vz : -243, hdg : 4145}
GLOBAL_POSITION_INT {time_boot_ms : 85704, lat : -353627942, lon : 1491657448, alt : 649500, relative_alt : 65444, vx : 533, vy : 470, vz : -244, hdg : 4160}
GLOBAL_POSITION_INT {time_boot_ms : 85953, lat : -353627822, lon : 1491657579, alt : 650120, relative_alt : 66069, vx : 533, vy : 470, vz : -244, hdg : 4166}
GLOBAL_POSITION_INT {time_boot_ms : 86203, lat : -353627702, lon : 1491657708, alt : 650750, relative_alt : 66693, vx : 533, vy : 470, vz : -244, hdg : 4162}
GLOBAL_POSITION_INT {time_boot_ms : 86454, lat : -353627582, lon : 1491657839, alt : 651370, relative_alt : 67318, vx : 533, vy : 470, vz : -244, hdg : 4153}
GLOBAL_POSITION_INT {time_boot_ms : 86704, lat : -353627462, lon : 1491657969, alt : 652000, relative_alt : 67942, vx : 534, vy : 471, vz : -244, hdg : 4144}
GLOBAL_POSITION_INT {time_boot_ms : 86954, lat : -353627342, lon : 1491658099, alt : 652620, relative_alt : 68568, vx : 533, vy : 470, vz : -244, hdg : 4138}
GLOBAL_POSITION_INT {time_boot_ms : 87204, lat : -353627222, lon : 1491658229, alt : 653250, relative_alt : 69191, vx : 531, vy : 468, vz : -241, hdg : 4136}
GLOBAL_POSITION_INT {time_boot_ms : 87454, lat : -353627104, lon : 1491658356, alt : 653840, relative_alt : 69785, vx : 511, vy : 445, vz : -222, hdg : 4124}
GLOBAL_POSITION_INT {time_boot_ms : 87704, lat : -353626994, lon : 1491658473, alt : 654370, relative_alt : 70319, vx : 471, vy : 402, vz : -195, hdg : 4090}
GLOBAL_POSITION_INT {time_boot_ms : 87953, lat : -353626892, lon : 1491658578, alt : 654840, relative_alt : 70785, vx : 427, vy : 357, vz : -166, hdg : 4045}
GLOBAL_POSITION_INT {time_boot_ms : 88203, lat : -353626800, lon : 1491658673, alt : 655230, relative_alt : 71179, vx : 384, vy : 316, vz : -137, hdg : 3979}
GLOBAL_POSITION_INT {time_boot_ms : 88454, lat : -353626718, lon : 1491658756, alt : 655560, relative_alt : 71501, vx : 341, vy : 278, vz : -110, hdg : 3905}
GLOBAL_POSITION_INT {time_boot_ms : 88704, lat : -353626646, lon : 1491658829, alt : 655810, relative_alt : 71755, vx : 298, vy : 240, vz : -84, hdg : 3840}
GLOBAL_POSITION_INT {time_boot_ms : 88954, lat : -353626583, lon : 1491658892, alt : 656000, relative_alt : 71944, vx : 253, vy : 202, vz : -59, hdg : 3796}
GLOBAL_POSITION_INT {time_boot_ms : 89204, lat : -353626531, lon : 1491658944, alt : 656120, relative_alt : 72068, vx : 206, vy : 163, vz : -35, hdg : 3779}
GLOBAL_POSITION_INT {time_boot_ms : 89454, lat : -353626490, lon : 1491658985, alt : 656190, relative_alt : 72131, vx : 158, vy : 124, vz : -11, hdg : 3788}
GLOBAL_POSITION_INT {time_boot_ms : 89704, lat : -353626460, lon : 1491659015, alt : 656190, relative_alt : 72132, vx : 108, vy : 84, vz : 12, hdg : 3820}
GLOBAL_POSITION_INT {time_boot_ms : 89954, lat : -353626441, lon : 1491659033, alt : 656130, relative_alt : 72070, vx : 56, vy : 43, vz : 35, hdg : 3882}
GLOBAL_POSITION_INT {time_boot_ms : 90203, lat : -353626434, lon : 1491659041, alt : 656000, relative_alt : 71945, vx : 3, vy : 1, vz : 59, hdg : 4020}
GLOBAL_POSITION_INT {time_boot_ms : 90454, lat : -353626440, lon : 1491659036, alt : 655820, relative_alt : 71760, vx : -50, vy : -39, vz : 83, hdg : 4213}
GLOBAL_POSITION_INT {time_boot_ms : 90704, lat : -353626457, lon : 1491659021, alt : 655570, relative_alt : 71515, vx : -103, vy : -80, vz : 107, hdg : 4604}
GLOBAL_POSITION_INT {time_boot_ms : 90954, lat : -353626485, lon : 1491658995, alt : 655260, relative_alt : 71209, vx : -156, vy : -120, vz : 131, hdg : 5617}
GLOBAL_POSITION_INT {time_boot_ms : 91204, lat : -353626525, lon : 1491658958, alt : 654900, relative_alt : 70849, vx : -210, vy : -160, vz : 147, hdg : 7250}
GLOBAL_POSITION_INT {time_boot_ms : 91454, lat : -353626578, lon : 1491658909, alt : 654520, relative_alt : 70462, vx : -263, vy : -200, vz : 152, hdg : 9233}
GLOBAL_POSITION_INT {time_boot_ms : 91704, lat : -353626641, lon : 1491658850, alt : 654130, relative_alt : 70071, vx : -297, vy : -227, vz : 151, hdg : 11368}
GLOBAL_POSITION_INT {time_boot_ms : 91954, lat : -353626709, lon : 1491658787, alt : 653740, relative_alt : 69684, vx : -316, vy : -239, vz : 148, hdg : 13558}
GLOBAL_POSITION_INT {time_boot_ms : 92203, lat : -353626782, lon : 1491658720, alt : 653350, relative_alt : 69297, vx : -329, vy : -245, vz : 146, hdg : 15565}
GLOBAL_POSITION_INT {time_boot_ms : 92453, lat : -353626856, lon : 1491658651, alt : 652970, relative_alt : 68915, vx : -337, vy : -251, vz : 145, hdg : 17207}
GLOBAL_POSITION_INT {time_boot_ms : 92704, lat : -353626932, lon : 1491658581, alt : 652590, relative_alt : 68535, vx : -340, vy : -256, vz : 143, hdg : 18520}
GLOBAL_POSITION_INT {time_boot_ms : 92954, lat : -353627008, lon : 1491658509, alt : 652210, relative_alt : 68158, vx : -340, vy : -258, vz : 143, hdg : 19622}
GLOBAL_POSITION_INT {time_boot_ms : 93204, lat : -353627084, lon : 1491658437, alt : 651840, relative_alt : 67783, vx : -339, vy : -257, vz : 142, hdg : 20686}
GLOBAL_POSITION_INT {time_boot_ms : 93454, lat : -353627160, lon : 1491658365, alt : 651460, relative_alt : 67408, vx : -338, vy : -255, vz : 142, hdg : 21818}
GLOBAL_POSITION_INT {time_boot_ms : 93704, lat : -353627235, lon : 1491658294, alt : 651090, relative_alt : 67035, vx : -340, vy : -252, vz : 142, hdg : 22719}
GLOBAL_POSITION_INT {time_boot_ms : 93954, lat : -353627311, lon : 1491658224, alt : 650720, relative_alt : 66662, vx : -341, vy : -249, vz : 142, hdg : 23108}
GLOBAL_POSITION_INT {time_boot_ms : 94203, lat : -353627387, lon : 1491658155, alt : 650340, relative_alt : 66289, vx : -342, vy : -247, vz : 142, hdg : 22996}
GLOBAL_POSITION_INT {time_boot_ms : 94453, lat : -353627463, lon : 1491658086, alt : 649970, relative_alt : 65914, vx : -342, vy : -246, vz : 142, hdg : 22516}
GLOBAL_POSITION_INT {time_boot_ms : 94704, lat : -353627539, lon : 1491658018, alt : 649590, relative_alt : 65538, vx : -341, vy : -246, vz : 142, hdg : 21861}
GLOBAL_POSITION_INT {time_boot_ms : 94954, lat : -353627614, lon : 1491657950, alt : 649220, relative_alt : 65164, vx : -340, vy : -247, vz : 142, hdg : 21265}
GLOBAL_POSITION_INT {time_boot_ms : 95204, lat : -353627690, lon : 1491657881, alt : 648850, relative_alt : 64791, vx : -338, vy : -248, vz : 143, hdg : 20923}
GLOBAL_POSITION_INT {time_boot_ms : 95454, lat : -353627765, lon : 1491657812, alt : 648470, relative_alt : 64416, vx : -337, vy : -249, vz : 143, hdg : 20901}
GLOBAL_POSITION_INT {time_boot_ms : 95704, lat : -353627840, lon : 1491657744, alt : 648100, relative_alt : 64042, vx : -337, vy : -249, vz : 143, hdg : 21142}
GLOBAL_POSITION_INT {time_boot_ms : 95954, lat : -353627915, lon : 1491657676, alt : 647720, relative_alt : 63669, vx : -337, vy : -248, vz : 143, hdg : 21513}
GLOBAL_POSITION_INT {time_boot_ms : 96204, lat : -353627990, lon : 1491657608, alt : 647350, relative_alt : 63295, vx : -337, vy : -247, vz : 143, hdg : 21863}
GLOBAL_POSITION_INT {time_boot_ms : 96453, lat : -353628065, lon : 1491657540, alt : 646980, relative_alt : 62921, vx : -337, vy : -246, vz : 143, hdg : 22072}
GLOBAL_POSITION_INT {time_boot_ms : 96704, lat : -353628140, lon : 1491657473, alt : 646600, relative_alt : 62548, vx : -336, vy : -245, vz : 143, hdg : 22092}
GLOBAL_POSITION_INT {time_boot_ms : 96954, lat : -353628215, lon : 1491657406, alt : 646230, relative_alt : 62176, vx : -336, vy : -245, vz : 143, hdg : 21955}
GLOBAL_POSITION_INT {time_boot_ms : 97204, lat : -353628290, lon : 1491657339, alt : 645860, relative_alt : 61803, vx : -335, vy : -246, vz : 144, hdg : 21740}
GLOBAL_POSITION_INT {time_boot_ms : 97454, lat : -353628364, lon : 1491657272, alt : 645490, relative_alt : 61430, vx : -334, vy : -246, vz : 144, hdg : 21537}
GLOBAL_POSITION_INT {time_boot_ms : 97704, lat : -353628439, lon : 1491657204, alt : 645110, relative_alt : 61057, vx : -333, vy : -247, vz : 144, hdg : 21415}
GLOBAL_POSITION_INT {time_boot_ms : 97954, lat : -353628513, lon : 1491657137, alt : 644740, relative_alt : 60684, vx : -332, vy : -247, vz : 144, hdg : 21400}
GLOBAL_POSITION_INT {time_boot_ms : 98204, lat : -353628588, lon : 1491657069, alt : 644370, relative_alt : 60310, vx : -331, vy : -247, vz : 144, hdg : 21477}
GLOBAL_POSITION_INT {time_boot_ms : 98453, lat : -353628662, lon : 1491657001, alt : 643990, relative_alt : 59935, vx : -330, vy : -247, vz : 145, hdg : 21602}
GLOBAL_POSITION_INT {time_boot_ms : 98703, lat : -353628736, lon : 1491656933, alt : 643620, relative_alt : 59561, vx : -330, vy : -246, vz : 145, hdg : 21721}
GLOBAL_POSITION_INT {time_boot_ms : 98954, lat : -353628811, lon : 1491656866, alt : 643240, relative_alt : 59185, vx : -329, vy : -246, vz : 145, hdg : 21795}
GLOBAL_POSITION_INT {time_boot_ms : 99204, lat : -353628885, lon : 1491656798, alt : 642870, relative_alt : 58810, vx : -329, vy : -245, vz : 145, hdg : 21805}
GLOBAL_POSITION_INT {time_boot_ms : 99454, lat : -353628959, lon : 1491656731, alt : 642490, relative_alt : 58435, vx : -328, vy : -245, vz : 145, hdg : 21761}
GLOBAL_POSITION_INT {time_boot_ms : 99704, lat : -353629033, lon : 1491656664, alt : 642120, relative_alt : 58061, vx : -328, vy : -245, vz : 145, hdg : 21688}
GLOBAL_POSITION_INT {time_boot_ms : 99954, lat : -353629107, lon : 1491656597, alt : 641740, relative_alt : 57686, vx : -327, vy : -244, vz : 145, hdg : 21619}
GLOBAL_POSITION_INT {time_boot_ms : 100204, lat : -353629180, lon : 1491656530, alt : 641370, relative_alt : 57314, vx : -326, vy : -244, vz : 145, hdg : 21576}
GLOBAL_POSITION_INT {time_boot_ms : 100453, lat : -353629254, lon : 1491656462, alt : 640990, relative_alt : 56938, vx : -326, vy : -244, vz : 145, hdg : 21570}
GLOBAL_POSITION_INT {time_boot_ms : 100703, lat : -353629328, lon : 1491656395, alt : 640620, relative_alt : 56565, vx : -326, vy : -244, vz : 145, hdg : 21595}
GLOBAL_POSITION_INT {time_boot_ms : 100954, lat : -353629402, lon : 1491656328, alt : 640250, relative_alt : 56190, vx : -325, vy : -244, vz : 145, hdg : 21637}
