Heartbeat from system (system 1 component 0)
GLOBAL_POSITION_INT {time_boot_ms : 2297, lat : 0, lon : 0, alt : 0, relative_alt : 0, vx : 0, vy : 0, vz : 0, hdg : 0}
GLOBAL_POSITION_INT {time_boot_ms : 2547, lat : 0, lon : 0, alt : -20, relative_alt : -27, vx : 0, vy : 0, vz : 0, hdg : 34018}
GLOBAL_POSITION_INT {time_boot_ms : 3444, lat : 0, lon : 0, alt : -20, relative_alt : -27, vx : 0, vy : 0, vz : 0, hdg : 34019}
GLOBAL_POSITION_INT {time_boot_ms : 3694, lat : 0, lon : 0, alt : -20, relative_alt : -27, vx : 0, vy : 0, vz : 0, hdg : 34019}
GLOBAL_POSITION_INT {time_boot_ms : 3944, lat : 0, lon : 0, alt : -20, relative_alt : -27, vx : 0, vy : 0, vz : 0, hdg : 34019}
GLOBAL_POSITION_INT {time_boot_ms : 4194, lat : 0, lon : 0, alt : -20, relative_alt : -27, vx : 0, vy : 0, vz : 0, hdg : 34019}
GLOBAL_POSITION_INT {time_boot_ms : 4444, lat : 0, lon : 0, alt : -20, relative_alt : -27, vx : 0, vy : 0, vz : 3, hdg : 0}
GLOBAL_POSITION_INT {time_boot_ms : 4694, lat : 0, lon : 0, alt : -20, relative_alt : -27, vx : 0, vy : 0, vz : 7, hdg : 0}
GLOBAL_POSITION_INT {time_boot_ms : 4944, lat : 0, lon : 0, alt : -20, relative_alt : -27, vx : 0, vy : 0, vz : 8, hdg : 0}
GLOBAL_POSITION_INT {time_boot_ms : 5194, lat : 0, lon : 0, alt : -20, relative_alt : -27, vx : 0, vy : 0, vz : 8, hdg : 0}
GLOBAL_POSITION_INT {time_boot_ms : 5444, lat : 0, lon : 0, alt : -20, relative_alt : -27, vx : 0, vy : 0, vz : 8, hdg : 0}
GLOBAL_POSITION_INT {time_boot_ms : 5694, lat : 0, lon : 0, alt : -20, relative_alt : -27, vx : 0, vy : 0, vz : 7, hdg : 0}
GLOBAL_POSITION_INT {time_boot_ms : 5944, lat : 0, lon : 0, alt : -20, relative_alt : -27, vx : 0, vy : 0, vz : 6, hdg : 34020}
GLOBAL_POSITION_INT {time_boot_ms : 6194, lat : 0, lon : 0, alt : -20, relative_alt : -27, vx : 0, vy : 0, vz : 6, hdg : 34020}
GLOBAL_POSITION_INT {time_boot_ms : 6444, lat : 0, lon : 0, alt : -20, relative_alt : -27, vx : 0, vy : 0, vz : 5, hdg : 34020}
GLOBAL_POSITION_INT {time_boot_ms : 6694, lat : 0, lon : 0, alt : -20, relative_alt : -27, vx : 0, vy : 0, vz : 4, hdg : 34020}
GLOBAL_POSITION_INT {time_boot_ms : 6944, lat : 0, lon : 0, alt : -20, relative_alt : -27, vx : 0, vy : 0, vz : 3, hdg : 34020}
GLOBAL_POSITION_INT {time_boot_ms : 7194, lat : 0, lon : 0, alt : -20, relative_alt : -27, vx : 0, vy : 0, vz : 2, hdg : 34020}
GLOBAL_POSITION_INT {time_boot_ms : 7444, lat : 0, lon : 0, alt : -20, relative_alt : -27, vx : 0, vy : 0, vz : 1, hdg : 34020}
GLOBAL_POSITION_INT {time_boot_ms : 7694, lat : 0, lon : 0, alt : -20, relative_alt : -27, vx : 0, vy : 0, vz : 0, hdg : 34020}
GLOBAL_POSITION_INT {time_boot_ms : 7944, lat : 0, lon : 0, alt : -20, relative_alt : -27, vx : 0, vy : 0, vz : 0, hdg : 34020}
GLOBAL_POSITION_INT {time_boot_ms : 8194, lat : 0, lon : 0, alt : -20, relative_alt : -27, vx : 0, vy : 0, vz : -1, hdg : 34020}
GLOBAL_POSITION_INT {time_boot_ms : 8444, lat : 0, lon : 0, alt : -20, relative_alt : -27, vx : 0, vy : 0, vz : -1, hdg : 34020}
GLOBAL_POSITION_INT {time_boot_ms : 8694, lat : -353632621, lon : 1491652374, alt : 584090, relative_alt : -27, vx : 0, vy : 0, vz : -2, hdg : 34041}
GLOBAL_POSITION_INT {time_boot_ms : 8944, lat : -353632621, lon : 1491652374, alt : 584090, relative_alt : -27, vx : 0, vy : 0, vz : -2, hdg : 34182}
GLOBAL_POSITION_INT {time_boot_ms : 9194, lat : -353632621, lon : 1491652374, alt : 584090, relative_alt : -27, vx : 0, vy : 0, vz : -3, hdg : 34328}
GLOBAL_POSITION_INT {time_boot_ms : 9444, lat : -353632621, lon : 1491652374, alt : 584090, relative_alt : -27, vx : 0, vy : 0, vz : -3, hdg : 34457}
GLOBAL_POSITION_INT {time_boot_ms : 9694, lat : -353632621, lon : 1491652374, alt : 584090, relative_alt : -27, vx : 0, vy : 0, vz : -3, hdg : 34578}
GLOBAL_POSITION_INT {time_boot_ms : 9944, lat : -353632621, lon : 1491652374, alt : 584090, relative_alt : -27, vx : 0, vy : 0, vz : -3, hdg : 34690}
GLOBAL_POSITION_INT {time_boot_ms : 10194, lat : -353632621, lon : 1491652374, alt : 584090, relative_alt : -27, vx : 0, vy : 0, vz : -3, hdg : 34795}
GLOBAL_POSITION_INT {time_boot_ms : 10444, lat : -353632621, lon : 1491652374, alt : 584090, relative_alt : -27, vx : 0, vy : 0, vz : -3, hdg : 34887}
GLOBAL_POSITION_INT {time_boot_ms : 10694, lat : -353632621, lon : 1491652374, alt : 584090, relative_alt : -27, vx : 0, vy : 0, vz : -3, hdg : 34975}
GLOBAL_POSITION_INT {time_boot_ms : 10944, lat : -353632621, lon : 1491652374, alt : 584090, relative_alt : -27, vx : 0, vy : 0, vz : -3, hdg : 35055}
GLOBAL_POSITION_INT {time_boot_ms : 11194, lat : -353632621, lon : 1491652374, alt : 584090, relative_alt : -27, vx : 0, vy : 0, vz : -3, hdg : 35128}
GLOBAL_POSITION_INT {time_boot_ms : 11444, lat : -353632621, lon : 1491652374, alt : 584090, relative_alt : -27, vx : 0, vy : 0, vz : -3, hdg : 35194}
GLOBAL_POSITION_INT {time_boot_ms : 11694, lat : -353632621, lon : 1491652374, alt : 584090, relative_alt : -27, vx : 0, vy : 0, vz : -3, hdg : 35253}
GLOBAL_POSITION_INT {time_boot_ms : 11944, lat : -353632621, lon : 1491652374, alt : 584090, relative_alt : -27, vx : 0, vy : 0, vz : -2, hdg : 35306}
GLOBAL_POSITION_INT {time_boot_ms : 12194, lat : -353632621, lon : 1491652374, alt : 584090, relative_alt : -27, vx : 0, vy : 0, vz : -2, hdg : 35353}
GLOBAL_POSITION_INT {time_boot_ms : 12444, lat : -353632621, lon : 1491652374, alt : 584090, relative_alt : -27, vx : 0, vy : 0, vz : -2, hdg : 35395}
GLOBAL_POSITION_INT {time_boot_ms : 12694, lat : -353632621, lon : 1491652374, alt : 584090, relative_alt : -27, vx : 0, vy : 0, vz : -2, hdg : 35432}
GLOBAL_POSITION_INT {time_boot_ms : 12944, lat : -353632621, lon : 1491652374, alt : 584090, relative_alt : -27, vx : 0, vy : 0, vz : -2, hdg : 35465}
GLOBAL_POSITION_INT {time_boot_ms : 13194, lat : -353632621, lon : 1491652374, alt : 584090, relative_alt : -27, vx : 0, vy : 0, vz : -2, hdg : 35494}
GLOBAL_POSITION_INT {time_boot_ms : 13444, lat : -353632621, lon : 1491652374, alt : 584090, relative_alt : -27, vx : 0, vy : 0, vz : -1, hdg : 35519}
GLOBAL_POSITION_INT {time_boot_ms : 13694, lat : -353632621, lon : 1491652374, alt : 584090, relative_alt : -27, vx : 0, vy : 0, vz : -1, hdg : 35541}
GLOBAL_POSITION_INT {time_boot_ms : 13944, lat : -353632621, lon : 1491652374, alt : 584090, relative_alt : -27, vx : 0, vy : 0, vz : -1, hdg : 35560}
GLOBAL_POSITION_INT {time_boot_ms : 14194, lat : -353632621, lon : 1491652374, alt : 584090, relative_alt : -27, vx : 0, vy : 0, vz : -1, hdg : 35577}
GLOBAL_POSITION_INT {time_boot_ms : 14444, lat : -353632621, lon : 1491652374, alt : 584090, relative_alt : -27, vx : 0, vy : 0, vz : -1, hdg : 35591}
GLOBAL_POSITION_INT {time_boot_ms : 14694, lat : -353632621, lon : 1491652374, alt : 584090, relative_alt : -27, vx : 0, vy : 0, vz : -1, hdg : 35603}
GLOBAL_POSITION_INT {time_boot_ms : 14944, lat : -353632621, lon : 1491652374, alt : 584090, relative_alt : -27, vx : 0, vy : 0, vz : -1, hdg : 35615}
GLOBAL_POSITION_INT {time_boot_ms : 15194, lat : -353632621, lon : 1491652374, alt : 584090, relative_alt : -27, vx : 0, vy : 0, vz : -1, hdg : 35623}
GLOBAL_POSITION_INT {time_boot_ms : 15444, lat : -353632621, lon : 1491652374, alt : 584090, relative_alt : -27, vx : 0, vy : 0, vz : -1, hdg : 35631}
GLOBAL_POSITION_INT {time_boot_ms : 15694, lat : -353632621, lon : 1491652374, alt : 584090, relative_alt : -27, vx : 0, vy : 0, vz : -1, hdg : 35637}
GLOBAL_POSITION_INT {time_boot_ms : 15944, lat : -353632621, lon : 1491652374, alt : 584090, relative_alt : -27, vx : 0, vy : 0, vz : 0, hdg : 35643}
GLOBAL_POSITION_INT {time_boot_ms : 16194, lat : -353632621, lon : 1491652374, alt : 584090, relative_alt : -27, vx : 0, vy : 0, vz : 0, hdg : 35647}
GLOBAL_POSITION_INT {time_boot_ms : 16444, lat : -353632621, lon : 1491652374, alt : 584090, relative_alt : -27, vx : 0, vy : 0, vz : 0, hdg : 35651}
GLOBAL_POSITION_INT {time_boot_ms : 16694, lat : -353632621, lon : 1491652374, alt : 584090, relative_alt : -27, vx : 0, vy : 0, vz : 0, hdg : 35653}
GLOBAL_POSITION_INT {time_boot_ms : 16944, lat : -353632621, lon : 1491652374, alt : 584090, relative_alt : -27, vx : 0, vy : 0, vz : 0, hdg : 35655}
GLOBAL_POSITION_INT {time_boot_ms : 17194, lat : -353632621, lon : 1491652374, alt : 584090, relative_alt : -27, vx : 0, vy : 0, vz : 0, hdg : 35656}
GLOBAL_POSITION_INT {time_boot_ms : 17444, lat : -353632621, lon : 1491652374, alt : 584090, relative_alt : -27, vx : 0, vy : 0, vz : 0, hdg : 35657}
GLOBAL_POSITION_INT {time_boot_ms : 17694, lat : -353632621, lon : 1491652374, alt : 584090, relative_alt : -27, vx : 0, vy : 0, vz : 0, hdg : 35658}
GLOBAL_POSITION_INT {time_boot_ms : 17944, lat : -353632621, lon : 1491652374, alt : 584090, relative_alt : -27, vx : 0, vy : 0, vz : 0, hdg : 35658}
GLOBAL_POSITION_INT {time_boot_ms : 18194, lat : -353632621, lon : 1491652374, alt : 584090, relative_alt : -27, vx : 0, vy : 0, vz : 0, hdg : 35657}
GLOBAL_POSITION_INT {time_boot_ms : 18444, lat : -353632621, lon : 1491652374, alt : 584090, relative_alt : -27, vx : 0, vy : 0, vz : 0, hdg : 35657}
GLOBAL_POSITION_INT {time_boot_ms : 18694, lat : -353632621, lon : 1491652374, alt : 584090, relative_alt : -15, vx : 0, vy : 0, vz : 0, hdg : 35655}
GLOBAL_POSITION_INT {time_boot_ms : 18944, lat : -353632621, lon : 1491652374, alt : 584090, relative_alt : -7, vx : 0, vy : 0, vz : 0, hdg : 35655}
GLOBAL_POSITION_INT {time_boot_ms : 19194, lat : -353632621, lon : 1491652374, alt : 584090, relative_alt : -5, vx : 0, vy : 0, vz : 0, hdg : 35653}
GLOBAL_POSITION_INT {time_boot_ms : 19444, lat : -353632621, lon : 1491652374, alt : 584090, relative_alt : -6, vx : 0, vy : 0, vz : 0, hdg : 35651}
GLOBAL_POSITION_INT {time_boot_ms : 19694, lat : -353632621, lon : 1491652374, alt : 584090, relative_alt : -7, vx : 0, vy : 0, vz : 0, hdg : 35649}
GLOBAL_POSITION_INT {time_boot_ms : 19944, lat : -353632621, lon : 1491652374, alt : 584090, relative_alt : -9, vx : 0, vy : 0, vz : 0, hdg : 35648}
GLOBAL_POSITION_INT {time_boot_ms : 20194, lat : -353632621, lon : 1491652374, alt : 584090, relative_alt : -11, vx : 0, vy : 0, vz : 0, hdg : 35645}
GLOBAL_POSITION_INT {time_boot_ms : 20444, lat : -353632621, lon : 1491652374, alt : 584090, relative_alt : -13, vx : 0, vy : 0, vz : 0, hdg : 35643}
GLOBAL_POSITION_INT {time_boot_ms : 20694, lat : -353632621, lon : 1491652374, alt : 584090, relative_alt : -14, vx : 0, vy : 0, vz : 0, hdg : 35641}
GLOBAL_POSITION_INT {time_boot_ms : 20944, lat : -353632621, lon : 1491652374, alt : 584090, relative_alt : -16, vx : 0, vy : 0, vz : 0, hdg : 35639}
GLOBAL_POSITION_INT {time_boot_ms : 21194, lat : -353632621, lon : 1491652374, alt : 584090, relative_alt : -17, vx : 0, vy : 0, vz : 0, hdg : 35636}
GLOBAL_POSITION_INT {time_boot_ms : 21444, lat : -353632621, lon : 1491652374, alt : 584090, relative_alt : -18, vx : 0, vy : 0, vz : 0, hdg : 35634}
GLOBAL_POSITION_INT {time_boot_ms : 21694, lat : -353632621, lon : 1491652374, alt : 584090, relative_alt : -19, vx : 0, vy : 1, vz : 0, hdg : 35631}
GLOBAL_POSITION_INT {time_boot_ms : 21944, lat : -353632621, lon : 1491652374, alt : 584090, relative_alt : -20, vx : 0, vy : 1, vz : 0, hdg : 35629}
GLOBAL_POSITION_INT {time_boot_ms : 22194, lat : -353632621, lon : 1491652374, alt : 584090, relative_alt : -20, vx : 0, vy : 1, vz : 0, hdg : 35626}
GLOBAL_POSITION_INT {time_boot_ms : 22444, lat : -353632621, lon : 1491652374, alt : 584090, relative_alt : -21, vx : 0, vy : 1, vz : 0, hdg : 35624}
GLOBAL_POSITION_INT {time_boot_ms : 22694, lat : -353632621, lon : 1491652374, alt : 584090, relative_alt : -22, vx : 0, vy : 1, vz : 0, hdg : 35621}
GLOBAL_POSITION_INT {time_boot_ms : 22944, lat : -353632621, lon : 1491652374, alt : 584090, relative_alt : -22, vx : 0, vy : 1, vz : 0, hdg : 35619}
GLOBAL_POSITION_INT {time_boot_ms : 23194, lat : -353632621, lon : 1491652374, alt : 584090, relative_alt : -22, vx : 0, vy : 1, vz : 0, hdg : 35616}
GLOBAL_POSITION_INT {time_boot_ms : 23444, lat : -353632621, lon : 1491652374, alt : 584090, relative_alt : -23, vx : 0, vy : 1, vz : 0, hdg : 35614}
GLOBAL_POSITION_INT {time_boot_ms : 23694, lat : -353632621, lon : 1491652374, alt : 584090, relative_alt : -23, vx : -1, vy : 1, vz : 0, hdg : 35611}
GLOBAL_POSITION_INT {time_boot_ms : 23944, lat : -353632621, lon : 1491652374, alt : 584090, relative_alt : -24, vx : -1, vy : 1, vz : 0, hdg : 35609}
GLOBAL_POSITION_INT {time_boot_ms : 24194, lat : -353632621, lon : 1491652374, alt : 584090, relative_alt : -24, vx : -1, vy : 1, vz : 0, hdg : 35606}
GLOBAL_POSITION_INT {time_boot_ms : 24444, lat : -353632621, lon : 1491652374, alt : 584090, relative_alt : -24, vx : -1, vy : 1, vz : 0, hdg : 35603}
GLOBAL_POSITION_INT {time_boot_ms : 24694, lat : -353632621, lon : 1491652374, alt : 584090, relative_alt : -24, vx : -1, vy : 1, vz : 0, hdg : 35600}
GLOBAL_POSITION_INT {time_boot_ms : 24944, lat : -353632621, lon : 1491652374, alt : 584090, relative_alt : -24, vx : -1, vy : 1, vz : 0, hdg : 35598}
GLOBAL_POSITION_INT {time_boot_ms : 25194, lat : -353632621, lon : 1491652374, alt : 584090, relative_alt : -25, vx : -1, vy : 1, vz : 0, hdg : 35595}
GLOBAL_POSITION_INT {time_boot_ms : 25444, lat : -353632621, lon : 1491652374, alt : 584090, relative_alt : -25, vx : -1, vy : 1, vz : 0, hdg : 35593}
GLOBAL_POSITION_INT {time_boot_ms : 25694, lat : -353632621, lon : 1491652374, alt : 584090, relative_alt : -25, vx : -1, vy : 1, vz : 0, hdg : 35590}
GLOBAL_POSITION_INT {time_boot_ms : 25944, lat : -353632621, lon : 1491652374, alt : 584090, relative_alt : -25, vx : -1, vy : 1, vz : 0, hdg : 35588}
GLOBAL_POSITION_INT {time_boot_ms : 26194, lat : -353632621, lon : 1491652374, alt : 584090, relative_alt : -25, vx : -1, vy : 1, vz : 0, hdg : 35585}
GLOBAL_POSITION_INT {time_boot_ms : 26444, lat : -353632621, lon : 1491652374, alt : 584090, relative_alt : -25, vx : -1, vy : 1, vz : 0, hdg : 35583}
GLOBAL_POSITION_INT {time_boot_ms : 26694, lat : -353632621, lon : 1491652374, alt : 584090, relative_alt : -25, vx : -1, vy : 1, vz : 0, hdg : 35580}
GLOBAL_POSITION_INT {time_boot_ms : 26944, lat : -353632621, lon : 1491652374, alt : 584090, relative_alt : -25, vx : -1, vy : 1, vz : 0, hdg : 35577}
GLOBAL_POSITION_INT {time_boot_ms : 27194, lat : -353632621, lon : 1491652374, alt : 584090, relative_alt : -25, vx : -1, vy : 1, vz : 0, hdg : 35575}
GLOBAL_POSITION_INT {time_boot_ms : 27444, lat : -353632621, lon : 1491652374, alt : 584090, relative_alt : -25, vx : -1, vy : 1, vz : 0, hdg : 35573}
GLOBAL_POSITION_INT {time_boot_ms : 27694, lat : -353632621, lon : 1491652374, alt : 584090, relative_alt : -25, vx : -1, vy : 1, vz : 0, hdg : 35570}
GLOBAL_POSITION_INT {time_boot_ms : 27944, lat : -353632621, lon : 1491652374, alt : 584090, relative_alt : -25, vx : -1, vy : 1, vz : 0, hdg : 35568}
GLOBAL_POSITION_INT {time_boot_ms : 28194, lat : -353632621, lon : 1491652374, alt : 584090, relative_alt : -25, vx : -1, vy : 1, vz : 0, hdg : 35566}
GLOBAL_POSITION_INT {time_boot_ms : 28444, lat : -353632621, lon : 1491652374, alt : 584090, relative_alt : -25, vx : -1, vy : 1, vz : 0, hdg : 35563}
GLOBAL_POSITION_INT {time_boot_ms : 28694, lat : -353632621, lon : 1491652374, alt : 584090, relative_alt : -25, vx : -1, vy : 1, vz : 0, hdg : 35561}
GLOBAL_POSITION_INT {time_boot_ms : 28944, lat : -353632621, lon : 1491652374, alt : 584090, relative_alt : -25, vx : -1, vy : 1, vz : 0, hdg : 35559}
GLOBAL_POSITION_INT {time_boot_ms : 29194, lat : -353632621, lon : 1491652374, alt : 584090, relative_alt : -25, vx : -1, vy : 1, vz : 0, hdg : 35557}
GLOBAL_POSITION_INT {time_boot_ms : 29444, lat : -353632621, lon : 1491652374, alt : 584090, relative_alt : -25, vx : -1, vy : 1, vz : 0, hdg : 35555}
GLOBAL_POSITION_INT {time_boot_ms : 29694, lat : -353632621, lon : 1491652374, alt : 584090, relative_alt : -25, vx : -1, vy : 1, vz : 0, hdg : 35552}
GLOBAL_POSITION_INT {time_boot_ms : 29944, lat : -353632621, lon : 1491652374, alt : 584090, relative_alt : -25, vx : -1, vy : 2, vz : 0, hdg : 35550}
GLOBAL_POSITION_INT {time_boot_ms : 30194, lat : -353632621, lon : 1491652374, alt : 584090, relative_alt : -25, vx : -1, vy : 2, vz : 0, hdg : 35548}
GLOBAL_POSITION_INT {time_boot_ms : 30444, lat : -353632621, lon : 1491652374, alt : 584090, relative_alt : -24, vx : -1, vy : 2, vz : 0, hdg : 35546}
GLOBAL_POSITION_INT {time_boot_ms : 30694, lat : -353632621, lon : 1491652374, alt : 584090, relative_alt : -24, vx : -1, vy : 2, vz : 0, hdg : 35544}
GLOBAL_POSITION_INT {time_boot_ms : 30944, lat : -353632621, lon : 1491652374, alt : 584090, relative_alt : -24, vx : -1, vy : 2, vz : 0, hdg : 35542}
GLOBAL_POSITION_INT {time_boot_ms : 31194, lat : -353632621, lon : 1491652374, alt : 584090, relative_alt : -24, vx : -1, vy : 2, vz : 0, hdg : 35540}
GLOBAL_POSITION_INT {time_boot_ms : 31444, lat : -353632621, lon : 1491652374, alt : 584090, relative_alt : -24, vx : -1, vy : 2, vz : 0, hdg : 35538}
GLOBAL_POSITION_INT {time_boot_ms : 31694, lat : -353632621, lon : 1491652374, alt : 584090, relative_alt : -24, vx : -1, vy : 2, vz : 0, hdg : 35536}
GLOBAL_POSITION_INT {time_boot_ms : 31944, lat : -353632621, lon : 1491652374, alt : 584090, relative_alt : -24, vx : -1, vy : 2, vz : 0, hdg : 35534}
GLOBAL_POSITION_INT {time_boot_ms : 32194, lat : -353632621, lon : 1491652374, alt : 584090, relative_alt : -24, vx : -1, vy : 2, vz : 0, hdg : 35532}
GLOBAL_POSITION_INT {time_boot_ms : 32444, lat : -353632621, lon : 1491652374, alt : 584090, relative_alt : -24, vx : -1, vy : 2, vz : 0, hdg : 35530}
GLOBAL_POSITION_INT {time_boot_ms : 32694, lat : -353632621, lon : 1491652374, alt : 584090, relative_alt : -24, vx : -1, vy : 2, vz : 0, hdg : 35528}
GLOBAL_POSITION_INT {time_boot_ms : 32944, lat : -353632621, lon : 1491652374, alt : 584090, relative_alt : -24, vx : -1, vy : 2, vz : 0, hdg : 35527}
GLOBAL_POSITION_INT {time_boot_ms : 33194, lat : -353632621, lon : 1491652374, alt : 584090, relative_alt : -24, vx : -1, vy : 2, vz : 0, hdg : 35525}
GLOBAL_POSITION_INT {time_boot_ms : 33444, lat : -353632621, lon : 1491652374, alt : 584090, relative_alt : -24, vx : -1, vy : 2, vz : 0, hdg : 35523}
GLOBAL_POSITION_INT {time_boot_ms : 33694, lat : -353632621, lon : 1491652374, alt : 584090, relative_alt : -24, vx : -1, vy : 2, vz : 0, hdg : 35521}
GLOBAL_POSITION_INT {time_boot_ms : 33944, lat : -353632621, lon : 1491652374, alt : 584090, relative_alt : -24, vx : -1, vy : 2, vz : 0, hdg : 35520}
GLOBAL_POSITION_INT {time_boot_ms : 34194, lat : -353632621, lon : 1491652374, alt : 584090, relative_alt : -24, vx : -1, vy : 2, vz : 0, hdg : 35518}
GLOBAL_POSITION_INT {time_boot_ms : 34444, lat : -353632621, lon : 1491652374, alt : 584090, relative_alt : -24, vx : -1, vy : 2, vz : 0, hdg : 35516}
GLOBAL_POSITION_INT {time_boot_ms : 34694, lat : -353632621, lon : 1491652374, alt : 584090, relative_alt : -24, vx : -1, vy : 2, vz : 0, hdg : 35514}
GLOBAL_POSITION_INT {time_boot_ms : 34944, lat : -353632621, lon : 1491652374, alt : 584090, relative_alt : -24, vx : -1, vy : 2, vz : 0, hdg : 35513}
GLOBAL_POSITION_INT {time_boot_ms : 35194, lat : -353632621, lon : 1491652374, alt : 584090, relative_alt : -24, vx : -2, vy : 2, vz : 0, hdg : 35511}
GLOBAL_POSITION_INT {time_boot_ms : 35444, lat : -353632621, lon : 1491652374, alt : 584090, relative_alt : -24, vx : -2, vy : 2, vz : 0, hdg : 35510}
GLOBAL_POSITION_INT {time_boot_ms : 35694, lat : -353632621, lon : 1491652374, alt : 584090, relative_alt : -24, vx : -2, vy : 2, vz : 0, hdg : 35508}
GLOBAL_POSITION_INT {time_boot_ms : 35944, lat : -353632621, lon : 1491652374, alt : 584090, relative_alt : -24, vx : -2, vy : 2, vz : 0, hdg : 35507}
GLOBAL_POSITION_INT {time_boot_ms : 36194, lat : -353632621, lon : 1491652374, alt : 584090, relative_alt : -24, vx : -2, vy : 2, vz : 0, hdg : 35505}
GLOBAL_POSITION_INT {time_boot_ms : 36444, lat : -353632621, lon : 1491652374, alt : 584090, relative_alt : -24, vx : -2, vy : 2, vz : 0, hdg : 35503}
GLOBAL_POSITION_INT {time_boot_ms : 36694, lat : -353632621, lon : 1491652374, alt : 584090, relative_alt : -24, vx : -2, vy : 2, vz : 0, hdg : 35502}
GLOBAL_POSITION_INT {time_boot_ms : 36944, lat : -353632621, lon : 1491652374, alt : 584090, relative_alt : -24, vx : -2, vy : 2, vz : 0, hdg : 35501}
GLOBAL_POSITION_INT {time_boot_ms : 37194, lat : -353632621, lon : 1491652374, alt : 584090, relative_alt : -24, vx : -2, vy : 2, vz : 0, hdg : 35499}
GLOBAL_POSITION_INT {time_boot_ms : 37444, lat : -353632621, lon : 1491652374, alt : 584090, relative_alt : -24, vx : -2, vy : 2, vz : 0, hdg : 35498}
GLOBAL_POSITION_INT {time_boot_ms : 37694, lat : -353632621, lon : 1491652374, alt : 584090, relative_alt : -24, vx : -2, vy : 2, vz : 0, hdg : 35497}
GLOBAL_POSITION_INT {time_boot_ms : 37944, lat : -353632621, lon : 1491652374, alt : 584090, relative_alt : -24, vx : -2, vy : 2, vz : 0, hdg : 35495}
GLOBAL_POSITION_INT {time_boot_ms : 38194, lat : -353632621, lon : 1491652374, alt : 584090, relative_alt : -24, vx : -2, vy : 2, vz : 0, hdg : 35494}
GLOBAL_POSITION_INT {time_boot_ms : 38444, lat : -353632621, lon : 1491652374, alt : 584090, relative_alt : -24, vx : -2, vy : 2, vz : 0, hdg : 35493}
GLOBAL_POSITION_INT {time_boot_ms : 38694, lat : -353632621, lon : 1491652374, alt : 584090, relative_alt : -24, vx : -2, vy : 2, vz : 0, hdg : 35491}
GLOBAL_POSITION_INT {time_boot_ms : 38944, lat : -353632621, lon : 1491652374, alt : 584090, relative_alt : -24, vx : -2, vy : 2, vz : 0, hdg : 35490}
GLOBAL_POSITION_INT {time_boot_ms : 39194, lat : -353632621, lon : 1491652374, alt : 584090, relative_alt : -24, vx : -2, vy : 2, vz : 0, hdg : 35488}
GLOBAL_POSITION_INT {time_boot_ms : 39444, lat : -353632621, lon : 1491652374, alt : 584090, relative_alt : -24, vx : -2, vy : 2, vz : 0, hdg : 35487}
GLOBAL_POSITION_INT {time_boot_ms : 39694, lat : -353632621, lon : 1491652374, alt : 584090, relative_alt : -24, vx : -2, vy : 2, vz : 0, hdg : 35486}
GLOBAL_POSITION_INT {time_boot_ms : 39944, lat : -353632621, lon : 1491652374, alt : 584090, relative_alt : -24, vx : -2, vy : 2, vz : 0, hdg : 35485}
GLOBAL_POSITION_INT {time_boot_ms : 40194, lat : -353632621, lon : 1491652374, alt : 584090, relative_alt : -24, vx : -2, vy : 2, vz : 0, hdg : 35483}
GLOBAL_POSITION_INT {time_boot_ms : 40444, lat : -353632621, lon : 1491652374, alt : 584090, relative_alt : -24, vx : -2, vy : 2, vz : 0, hdg : 35482}
GLOBAL_POSITION_INT {time_boot_ms : 40694, lat : -353632621, lon : 1491652374, alt : 584090, relative_alt : -24, vx : -2, vy : 2, vz : 0, hdg : 35481}
GLOBAL_POSITION_INT {time_boot_ms : 40944, lat : -353632621, lon : 1491652374, alt : 584090, relative_alt : -24, vx : -2, vy : 2, vz : 0, hdg : 35480}
GLOBAL_POSITION_INT {time_boot_ms : 41194, lat : -353632621, lon : 1491652374, alt : 584090, relative_alt : -24, vx : -2, vy : 2, vz : 0, hdg : 35478}
GLOBAL_POSITION_INT {time_boot_ms : 41444, lat : -353632621, lon : 1491652374, alt : 584060, relative_alt : -24, vx : 0, vy : 0, vz : 0, hdg : 35477}
GLOBAL_POSITION_INT {time_boot_ms : 41694, lat : -353632621, lon : 1491652374, alt : 584060, relative_alt : -24, vx : 0, vy : 0, vz : 0, hdg : 35476}
GLOBAL_POSITION_INT {time_boot_ms : 41944, lat : -353632621, lon : 1491652374, alt : 584060, relative_alt : -24, vx : 0, vy : 0, vz : 0, hdg : 35475}
GLOBAL_POSITION_INT {time_boot_ms : 42194, lat : -353632621, lon : 1491652374, alt : 584060, relative_alt : -24, vx : 0, vy : 0, vz : 0, hdg : 35474}
GLOBAL_POSITION_INT {time_boot_ms : 42444, lat : -353632621, lon : 1491652374, alt : 584060, relative_alt : -24, vx : 0, vy : 0, vz : 0, hdg : 35473}
GLOBAL_POSITION_INT {time_boot_ms : 42694, lat : -353632621, lon : 1491652374, alt : 584060, relative_alt : -24, vx : 0, vy : 1, vz : 0, hdg : 35471}
GLOBAL_POSITION_INT {time_boot_ms : 42944, lat : -353632621, lon : 1491652374, alt : 584060, relative_alt : -24, vx : -1, vy : 1, vz : 0, hdg : 35470}
GLOBAL_POSITION_INT {time_boot_ms : 43194, lat : -353632621, lon : 1491652374, alt : 584060, relative_alt : -24, vx : -1, vy : 1, vz : 0, hdg : 35469}
GLOBAL_POSITION_INT {time_boot_ms : 43444, lat : -353632621, lon : 1491652374, alt : 584060, relative_alt : -24, vx : -1, vy : 1, vz : 0, hdg : 35468}
GLOBAL_POSITION_INT {time_boot_ms : 43694, lat : -353632621, lon : 1491652374, alt : 584060, relative_alt : -24, vx : -1, vy : 1, vz : 0, hdg : 35467}
GLOBAL_POSITION_INT {time_boot_ms : 43944, lat : -353632621, lon : 1491652374, alt : 584060, relative_alt : -24, vx : -1, vy : 1, vz : 0, hdg : 35466}
GLOBAL_POSITION_INT {time_boot_ms : 44194, lat : -353632621, lon : 1491652375, alt : 584060, relative_alt : -24, vx : -1, vy : 1, vz : 0, hdg : 35464}
GLOBAL_POSITION_INT {time_boot_ms : 44444, lat : -353632621, lon : 1491652375, alt : 584060, relative_alt : -24, vx : -1, vy : 2, vz : 0, hdg : 35463}
GLOBAL_POSITION_INT {time_boot_ms : 44694, lat : -353632621, lon : 1491652375, alt : 584060, relative_alt : -24, vx : -1, vy : 2, vz : 0, hdg : 35462}
GLOBAL_POSITION_INT {time_boot_ms : 44944, lat : -353632621, lon : 1491652375, alt : 584060, relative_alt : -24, vx : -1, vy : 2, vz : 0, hdg : 35461}
GLOBAL_POSITION_INT {time_boot_ms : 45194, lat : -353632621, lon : 1491652375, alt : 584060, relative_alt : -24, vx : -1, vy : 2, vz : 0, hdg : 35460}
GLOBAL_POSITION_INT {time_boot_ms : 45444, lat : -353632621, lon : 1491652375, alt : 584060, relative_alt : -25, vx : -1, vy : 2, vz : 0, hdg : 35459}
GLOBAL_POSITION_INT {time_boot_ms : 45694, lat : -353632622, lon : 1491652375, alt : 584060, relative_alt : -25, vx : -1, vy : 2, vz : 0, hdg : 35458}
GLOBAL_POSITION_INT {time_boot_ms : 45944, lat : -353632622, lon : 1491652375, alt : 584060, relative_alt : -25, vx : -1, vy : 2, vz : 0, hdg : 35457}
GLOBAL_POSITION_INT {time_boot_ms : 46194, lat : -353632622, lon : 1491652375, alt : 584060, relative_alt : -25, vx : -1, vy : 1, vz : 0, hdg : 35456}
GLOBAL_POSITION_INT {time_boot_ms : 46445, lat : -353632621, lon : 1491652375, alt : 584060, relative_alt : 4, vx : -1, vy : 1, vz : 0, hdg : 35456}
GLOBAL_POSITION_INT {time_boot_ms : 46695, lat : -353632621, lon : 1491652375, alt : 584060, relative_alt : 4, vx : -1, vy : 1, vz : 0, hdg : 35455}
GLOBAL_POSITION_INT {time_boot_ms : 46945, lat : -353632621, lon : 1491652375, alt : 584060, relative_alt : 4, vx : -1, vy : 1, vz : 0, hdg : 35454}
GLOBAL_POSITION_INT {time_boot_ms : 47195, lat : -353632621, lon : 1491652375, alt : 584060, relative_alt : 4, vx : 0, vy : 1, vz : 0, hdg : 35453}
GLOBAL_POSITION_INT {time_boot_ms : 47445, lat : -353632621, lon : 1491652375, alt : 584060, relative_alt : 4, vx : 0, vy : 0, vz : 0, hdg : 35453}
GLOBAL_POSITION_INT {time_boot_ms : 47695, lat : -353632621, lon : 1491652375, alt : 584060, relative_alt : 4, vx : 0, vy : 0, vz : 0, hdg : 35452}
GLOBAL_POSITION_INT {time_boot_ms : 47944, lat : -353632621, lon : 1491652375, alt : 584060, relative_alt : 4, vx : 0, vy : 0, vz : 0, hdg : 35451}
GLOBAL_POSITION_INT {time_boot_ms : 48194, lat : -353632621, lon : 1491652375, alt : 584060, relative_alt : 4, vx : 0, vy : 0, vz : 0, hdg : 35450}
GLOBAL_POSITION_INT {time_boot_ms : 48445, lat : -353632621, lon : 1491652375, alt : 584060, relative_alt : 4, vx : 0, vy : 0, vz : 0, hdg : 35449}
GLOBAL_POSITION_INT {time_boot_ms : 48695, lat : -353632621, lon : 1491652375, alt : 584060, relative_alt : 4, vx : 0, vy : 0, vz : 0, hdg : 35448}
GLOBAL_POSITION_INT {time_boot_ms : 48945, lat : -353632621, lon : 1491652375, alt : 584060, relative_alt : 4, vx : 0, vy : 0, vz : 0, hdg : 35448}
GLOBAL_POSITION_INT {time_boot_ms : 49195, lat : -353632621, lon : 1491652375, alt : 584060, relative_alt : 4, vx : 0, vy : 0, vz : 0, hdg : 35447}
GLOBAL_POSITION_INT {time_boot_ms : 49445, lat : -353632621, lon : 1491652375, alt : 584060, relative_alt : 4, vx : 0, vy : 0, vz : 0, hdg : 35446}
GLOBAL_POSITION_INT {time_boot_ms : 49695, lat : -353632621, lon : 1491652375, alt : 584060, relative_alt : 4, vx : 0, vy : 0, vz : 0, hdg : 35445}
GLOBAL_POSITION_INT {time_boot_ms : 49945, lat : -353632621, lon : 1491652375, alt : 584060, relative_alt : 4, vx : 0, vy : 0, vz : 0, hdg : 35444}
GLOBAL_POSITION_INT {time_boot_ms : 50194, lat : -353632621, lon : 1491652375, alt : 584060, relative_alt : 4, vx : 0, vy : 0, vz : 0, hdg : 35443}
GLOBAL_POSITION_INT {time_boot_ms : 50445, lat : -353632621, lon : 1491652375, alt : 584070, relative_alt : 18, vx : 0, vy : 0, vz : -12, hdg : 35442}
GLOBAL_POSITION_INT {time_boot_ms : 50695, lat : -353632621, lon : 1491652375, alt : 584120, relative_alt : 66, vx : 0, vy : 0, vz : -25, hdg : 35441}
GLOBAL_POSITION_INT {time_boot_ms : 50945, lat : -353632621, lon : 1491652375, alt : 584210, relative_alt : 154, vx : 0, vy : 0, vz : -61, hdg : 35440}
GLOBAL_POSITION_INT {time_boot_ms : 51195, lat : -353632621, lon : 1491652375, alt : 584480, relative_alt : 428, vx : 0, vy : 0, vz : -122, hdg : 35440}
GLOBAL_POSITION_INT {time_boot_ms : 51445, lat : -353632621, lon : 1491652375, alt : 584770, relative_alt : 713, vx : 0, vy : 0, vz : -114, hdg : 35441}
GLOBAL_POSITION_INT {time_boot_ms : 51695, lat : -353632621, lon : 1491652374, alt : 585080, relative_alt : 1026, vx : 0, vy : 0, vz : -134, hdg : 35441}
GLOBAL_POSITION_INT {time_boot_ms : 51945, lat : -353632621, lon : 1491652374, alt : 585460, relative_alt : 1405, vx : 0, vy : 0, vz : -159, hdg : 35442}
GLOBAL_POSITION_INT {time_boot_ms : 52194, lat : -353632621, lon : 1491652374, alt : 585900, relative_alt : 1847, vx : 0, vy : 0, vz : -185, hdg : 35443}
GLOBAL_POSITION_INT {time_boot_ms : 52444, lat : -353632621, lon : 1491652373, alt : 586410, relative_alt : 2355, vx : 0, vy : 0, vz : -211, hdg : 35443}
GLOBAL_POSITION_INT {time_boot_ms : 52695, lat : -353632621, lon : 1491652373, alt : 586990, relative_alt : 2931, vx : 0, vy : 0, vz : -236, hdg : 35272}
GLOBAL_POSITION_INT {time_boot_ms : 52945, lat : -353632620, lon : 1491652373, alt : 587610, relative_alt : 3553, vx : 0, vy : 0, vz : -248, hdg : 35272}
GLOBAL_POSITION_INT {time_boot_ms : 53195, lat : -353632620, lon : 1491652372, alt : 588250, relative_alt : 4192, vx : 0, vy : 0, vz : -251, hdg : 35275}
GLOBAL_POSITION_INT {time_boot_ms : 53445, lat : -353632620, lon : 1491652372, alt : 588890, relative_alt : 4837, vx : 0, vy : 1, vz : -250, hdg : 35277}
GLOBAL_POSITION_INT {time_boot_ms : 53695, lat : -353632620, lon : 1491652372, alt : 589530, relative_alt : 5476, vx : 0, vy : 1, vz : -247, hdg : 35277}
GLOBAL_POSITION_INT {time_boot_ms : 53945, lat : -353632620, lon : 1491652372, alt : 590160, relative_alt : 6108, vx : -1, vy : 1, vz : -244, hdg : 35276}
GLOBAL_POSITION_INT {time_boot_ms : 54194, lat : -353632620, lon : 1491652372, alt : 590790, relative_alt : 6735, vx : -1, vy : 1, vz : -243, hdg : 35274}
GLOBAL_POSITION_INT {time_boot_ms : 54444, lat : -353632620, lon : 1491652372, alt : 591410, relative_alt : 7358, vx : -1, vy : 1, vz : -242, hdg : 35272}
GLOBAL_POSITION_INT {time_boot_ms : 54695, lat : -353632620, lon : 1491652372, alt : 592040, relative_alt : 7983, vx : -1, vy : 1, vz : -242, hdg : 35271}
GLOBAL_POSITION_INT {time_boot_ms : 54945, lat : -353632620, lon : 1491652372, alt : 592660, relative_alt : 8604, vx : -1, vy : 1, vz : -242, hdg : 35271}
GLOBAL_POSITION_INT {time_boot_ms : 55195, lat : -353632620, lon : 1491652372, alt : 593280, relative_alt : 9224, vx : -1, vy : 1, vz : -242, hdg : 35271}
GLOBAL_POSITION_INT {time_boot_ms : 55445, lat : -353632620, lon : 1491652372, alt : 593900, relative_alt : 9846, vx : -1, vy : 1, vz : -242, hdg : 35272}
GLOBAL_POSITION_INT {time_boot_ms : 55695, lat : -353632620, lon : 1491652372, alt : 594530, relative_alt : 10471, vx : -1, vy : 1, vz : -242, hdg : 35273}
GLOBAL_POSITION_INT {time_boot_ms : 55945, lat : -353632620, lon : 1491652372, alt : 595150, relative_alt : 11095, vx : -1, vy : 1, vz : -243, hdg : 35274}
GLOBAL_POSITION_INT {time_boot_ms : 56195, lat : -353632620, lon : 1491652372, alt : 595770, relative_alt : 11718, vx : -1, vy : 1, vz : -243, hdg : 35274}
GLOBAL_POSITION_INT {time_boot_ms : 56444, lat : -353632620, lon : 1491652372, alt : 596400, relative_alt : 12342, vx : -1, vy : 1, vz : -243, hdg : 35273}
GLOBAL_POSITION_INT {time_boot_ms : 56695, lat : -353632620, lon : 1491652372, alt : 597020, relative_alt : 12967, vx : -1, vy : 1, vz : -243, hdg : 35272}
GLOBAL_POSITION_INT {time_boot_ms : 56945, lat : -353632620, lon : 1491652372, alt : 597650, relative_alt : 13593, vx : -1, vy : 1, vz : -243, hdg : 35272}
GLOBAL_POSITION_INT {time_boot_ms : 57195, lat : -353632620, lon : 1491652373, alt : 598270, relative_alt : 14216, vx : -1, vy : 1, vz : -243, hdg : 35274}
GLOBAL_POSITION_INT {time_boot_ms : 57445, lat : -353632620, lon : 1491652373, alt : 598900, relative_alt : 14842, vx : -1, vy : 1, vz : -243, hdg : 35275}
GLOBAL_POSITION_INT {time_boot_ms : 57695, lat : -353632620, lon : 1491652373, alt : 599520, relative_alt : 15469, vx : -1, vy : 1, vz : -243, hdg : 35275}
GLOBAL_POSITION_INT {time_boot_ms : 57945, lat : -353632620, lon : 1491652373, alt : 600150, relative_alt : 16094, vx : -1, vy : 0, vz : -243, hdg : 35275}
GLOBAL_POSITION_INT {time_boot_ms : 58195, lat : -353632620, lon : 1491652373, alt : 600770, relative_alt : 16717, vx : -1, vy : 0, vz : -243, hdg : 35274}
GLOBAL_POSITION_INT {time_boot_ms : 58444, lat : -353632620, lon : 1491652373, alt : 601400, relative_alt : 17341, vx : -1, vy : 0, vz : -243, hdg : 35273}
GLOBAL_POSITION_INT {time_boot_ms : 58694, lat : -353632620, lon : 1491652373, alt : 602020, relative_alt : 17964, vx : -1, vy : 0, vz : -243, hdg : 35271}
GLOBAL_POSITION_INT {time_boot_ms : 58945, lat : -353632620, lon : 1491652373, alt : 602640, relative_alt : 18589, vx : 0, vy : 0, vz : -243, hdg : 35271}
GLOBAL_POSITION_INT {time_boot_ms : 59195, lat : -353632620, lon : 1491652373, alt : 603270, relative_alt : 19212, vx : 0, vy : 0, vz : -243, hdg : 35273}
GLOBAL_POSITION_INT {time_boot_ms : 59445, lat : -353632620, lon : 1491652373, alt : 603890, relative_alt : 19834, vx : 0, vy : 0, vz : -244, hdg : 35274}
GLOBAL_POSITION_INT {time_boot_ms : 59695, lat : -353632620, lon : 1491652373, alt : 604510, relative_alt : 20459, vx : 0, vy : 0, vz : -244, hdg : 35275}
GLOBAL_POSITION_INT {time_boot_ms : 59945, lat : -353632620, lon : 1491652373, alt : 605140, relative_alt : 21083, vx : 0, vy : 1, vz : -244, hdg : 35274}
GLOBAL_POSITION_INT {time_boot_ms : 60195, lat : -353632620, lon : 1491652373, alt : 605760, relative_alt : 21706, vx : 0, vy : 1, vz : -244, hdg : 35273}
GLOBAL_POSITION_INT {time_boot_ms : 60444, lat : -353632620, lon : 1491652372, alt : 606380, relative_alt : 22328, vx : 0, vy : 1, vz : -244, hdg : 35271}
GLOBAL_POSITION_INT {time_boot_ms : 60694, lat : -353632620, lon : 1491652372, alt : 607010, relative_alt : 22952, vx : 0, vy : 1, vz : -244, hdg : 35271}
GLOBAL_POSITION_INT {time_boot_ms : 60945, lat : -353632620, lon : 1491652372, alt : 607630, relative_alt : 23577, vx : -1, vy : 1, vz : -244, hdg : 35271}
GLOBAL_POSITION_INT {time_boot_ms : 61195, lat : -353632620, lon : 1491652372, alt : 608250, relative_alt : 24198, vx : -1, vy : 2, vz : -245, hdg : 35272}
GLOBAL_POSITION_INT {time_boot_ms : 61445, lat : -353632620, lon : 1491652372, alt : 608870, relative_alt : 24815, vx : -1, vy : 2, vz : -245, hdg : 35272}
GLOBAL_POSITION_INT {time_boot_ms : 61695, lat : -353632620, lon : 1491652372, alt : 609490, relative_alt : 25437, vx : -1, vy : 2, vz : -246, hdg : 35272}
GLOBAL_POSITION_INT {time_boot_ms : 61945, lat : -353632620, lon : 1491652372, alt : 610120, relative_alt : 26061, vx : -1, vy : 2, vz : -246, hdg : 35273}
GLOBAL_POSITION_INT {time_boot_ms : 62195, lat : -353632620, lon : 1491652372, alt : 610740, relative_alt : 26684, vx : -1, vy : 2, vz : -246, hdg : 35274}
GLOBAL_POSITION_INT {time_boot_ms : 62445, lat : -353632620, lon : 1491652372, alt : 611360, relative_alt : 27307, vx : -1, vy : 2, vz : -246, hdg : 35275}
GLOBAL_POSITION_INT {time_boot_ms : 62694, lat : -353632619, lon : 1491652372, alt : 611990, relative_alt : 27931, vx : -1, vy : 2, vz : -246, hdg : 35276}
GLOBAL_POSITION_INT {time_boot_ms : 62945, lat : -353632619, lon : 1491652372, alt : 612610, relative_alt : 28557, vx : -2, vy : 2, vz : -246, hdg : 35276}
GLOBAL_POSITION_INT {time_boot_ms : 63195, lat : -353632619, lon : 1491652372, alt : 613240, relative_alt : 29182, vx : -2, vy : 2, vz : -247, hdg : 35276}
GLOBAL_POSITION_INT {time_boot_ms : 63445, lat : -353632619, lon : 1491652372, alt : 613860, relative_alt : 29804, vx : -2, vy : 2, vz : -247, hdg : 35276}
GLOBAL_POSITION_INT {time_boot_ms : 63695, lat : -353632619, lon : 1491652372, alt : 614480, relative_alt : 30429, vx : -2, vy : 2, vz : -247, hdg : 35276}
GLOBAL_POSITION_INT {time_boot_ms : 63945, lat : -353632619, lon : 1491652372, alt : 615110, relative_alt : 31057, vx : -2, vy : 2, vz : -247, hdg : 35276}
GLOBAL_POSITION_INT {time_boot_ms : 64195, lat : -353632619, lon : 1491652372, alt : 615740, relative_alt : 31682, vx : -2, vy : 2, vz : -246, hdg : 35275}
GLOBAL_POSITION_INT {time_boot_ms : 64445, lat : -353632619, lon : 1491652372, alt : 616360, relative_alt : 32306, vx : -2, vy : 2, vz : -246, hdg : 35273}
GLOBAL_POSITION_INT {time_boot_ms : 64694, lat : -353632619, lon : 1491652372, alt : 616990, relative_alt : 32931, vx : -2, vy : 2, vz : -246, hdg : 35271}
GLOBAL_POSITION_INT {time_boot_ms : 64944, lat : -353632619, lon : 1491652372, alt : 617610, relative_alt : 33555, vx : -2, vy : 2, vz : -246, hdg : 35269}
GLOBAL_POSITION_INT {time_boot_ms : 65195, lat : -353632619, lon : 1491652372, alt : 618240, relative_alt : 34182, vx : -2, vy : 2, vz : -245, hdg : 35269}
GLOBAL_POSITION_INT {time_boot_ms : 65445, lat : -353632619, lon : 1491652372, alt : 618850, relative_alt : 34793, vx : -2, vy : 2, vz : -237, hdg : 35270}
GLOBAL_POSITION_INT {time_boot_ms : 65695, lat : -353632619, lon : 1491652372, alt : 619430, relative_alt : 35378, vx : -2, vy : 2, vz : -225, hdg : 35271}
GLOBAL_POSITION_INT {time_boot_ms : 65945, lat : -353632619, lon : 1491652372, alt : 619990, relative_alt : 35934, vx : -2, vy : 2, vz : -211, hdg : 35273}
GLOBAL_POSITION_INT {time_boot_ms : 66195, lat : -353632619, lon : 1491652372, alt : 620510, relative_alt : 36453, vx : -1, vy : 2, vz : -197, hdg : 35274}
GLOBAL_POSITION_INT {time_boot_ms : 66445, lat : -353632619, lon : 1491652372, alt : 620990, relative_alt : 36934, vx : -1, vy : 2, vz : -183, hdg : 35273}
GLOBAL_POSITION_INT {time_boot_ms : 66694, lat : -353632619, lon : 1491652372, alt : 621440, relative_alt : 37380, vx : -1, vy : 2, vz : -169, hdg : 35272}
GLOBAL_POSITION_INT {time_boot_ms : 66944, lat : -353632619, lon : 1491652372, alt : 621850, relative_alt : 37792, vx : -1, vy : 2, vz : -155, hdg : 35271}
GLOBAL_POSITION_INT {time_boot_ms : 67195, lat : -353632619, lon : 1491652372, alt : 622230, relative_alt : 38171, vx : -1, vy : 2, vz : -142, hdg : 35271}
GLOBAL_POSITION_INT {time_boot_ms : 67445, lat : -353632619, lon : 1491652372, alt : 622570, relative_alt : 38514, vx : -1, vy : 2, vz : -129, hdg : 35271}
GLOBAL_POSITION_INT {time_boot_ms : 67695, lat : -353632620, lon : 1491652372, alt : 622880, relative_alt : 38823, vx : -1, vy : 2, vz : -116, hdg : 35271}
GLOBAL_POSITION_INT {time_boot_ms : 67945, lat : -353632620, lon : 1491652372, alt : 623150, relative_alt : 39099, vx : -1, vy : 2, vz : -103, hdg : 35271}
GLOBAL_POSITION_INT {time_boot_ms : 68195, lat : -353632620, lon : 1491652372, alt : 623400, relative_alt : 39341, vx : -1, vy : 1, vz : -89, hdg : 35272}
GLOBAL_POSITION_INT {time_boot_ms : 68445, lat : -353632620, lon : 1491652372, alt : 623600, relative_alt : 39547, vx : -1, vy : 1, vz : -76, hdg : 35272}
GLOBAL_POSITION_INT {time_boot_ms : 68695, lat : -353632620, lon : 1491652372, alt : 623770, relative_alt : 39719, vx : -1, vy : 1, vz : -62, hdg : 35272}
GLOBAL_POSITION_INT {time_boot_ms : 68944, lat : -353632620, lon : 1491652372, alt : 623910, relative_alt : 39853, vx : -1, vy : 1, vz : -47, hdg : 35272}
GLOBAL_POSITION_INT {time_boot_ms : 69195, lat : -353632620, lon : 1491652372, alt : 624000, relative_alt : 39948, vx : -1, vy : 1, vz : -31, hdg : 35272}
GLOBAL_POSITION_INT {time_boot_ms : 69445, lat : -353632620, lon : 1491652372, alt : 624050, relative_alt : 39998, vx : -1, vy : 1, vz : -13, hdg : 35272}
GLOBAL_POSITION_INT {time_boot_ms : 69695, lat : -353632620, lon : 1491652372, alt : 624070, relative_alt : 40010, vx : -1, vy : 1, vz : -1, hdg : 35272}
GLOBAL_POSITION_INT {time_boot_ms : 69945, lat : -353632620, lon : 1491652372, alt : 624050, relative_alt : 39998, vx : -1, vy : 1, vz : 4, hdg : 35272}
GLOBAL_POSITION_INT {time_boot_ms : 70195, lat : -353632620, lon : 1491652372, alt : 624030, relative_alt : 39979, vx : -1, vy : 1, vz : 4, hdg : 35272}
GLOBAL_POSITION_INT {time_boot_ms : 70445, lat : -353632620, lon : 1491652372, alt : 624020, relative_alt : 39963, vx : -1, vy : 1, vz : 1, hdg : 35272}
GLOBAL_POSITION_INT {time_boot_ms : 70695, lat : -353632620, lon : 1491652373, alt : 624010, relative_alt : 39954, vx : -1, vy : 1, vz : -1, hdg : 35272}
GLOBAL_POSITION_INT {time_boot_ms : 70944, lat : -353632620, lon : 1491652373, alt : 624010, relative_alt : 39951, vx : -1, vy : 1, vz : -3, hdg : 35273}
GLOBAL_POSITION_INT {time_boot_ms : 71194, lat : -353632620, lon : 1491652373, alt : 624010, relative_alt : 39951, vx : -1, vy : 1, vz : -4, hdg : 35273}
GLOBAL_POSITION_INT {time_boot_ms : 71445, lat : -353632620, lon : 1491652373, alt : 624010, relative_alt : 39951, vx : -1, vy : 1, vz : -4, hdg : 35273}
GLOBAL_POSITION_INT {time_boot_ms : 71695, lat : -353632620, lon : 1491652373, alt : 624010, relative_alt : 39950, vx : -1, vy : 1, vz : -4, hdg : 35273}
GLOBAL_POSITION_INT {time_boot_ms : 71945, lat : -353632620, lon : 1491652373, alt : 624010, relative_alt : 39950, vx : -1, vy : 1, vz : -4, hdg : 35273}
GLOBAL_POSITION_INT {time_boot_ms : 72195, lat : -353632620, lon : 1491652373, alt : 624010, relative_alt : 39950, vx : -1, vy : 1, vz : -4, hdg : 35273}
GLOBAL_POSITION_INT {time_boot_ms : 72445, lat : -353632620, lon : 1491652373, alt : 624010, relative_alt : 39951, vx : -1, vy : 1, vz : -4, hdg : 35273}
GLOBAL_POSITION_INT {time_boot_ms : 72695, lat : -353632620, lon : 1491652373, alt : 624010, relative_alt : 39952, vx : -1, vy : 1, vz : -4, hdg : 35272}
GLOBAL_POSITION_INT {time_boot_ms : 72944, lat : -353632620, lon : 1491652373, alt : 624010, relative_alt : 39954, vx : -1, vy : 1, vz : -4, hdg : 35271}
GLOBAL_POSITION_INT {time_boot_ms : 73194, lat : -353632620, lon : 1491652373, alt : 624010, relative_alt : 39956, vx : -1, vy : 1, vz : -4, hdg : 35272}
GLOBAL_POSITION_INT {time_boot_ms : 73445, lat : -353632620, lon : 1491652373, alt : 624010, relative_alt : 39957, vx : -1, vy : 1, vz : -4, hdg : 35274}
GLOBAL_POSITION_INT {time_boot_ms : 73695, lat : -353632620, lon : 1491652373, alt : 624010, relative_alt : 39958, vx : -1, vy : 1, vz : -4, hdg : 35273}
GLOBAL_POSITION_INT {time_boot_ms : 73945, lat : -353632620, lon : 1491652373, alt : 624020, relative_alt : 39960, vx : -1, vy : 1, vz : -3, hdg : 35271}
GLOBAL_POSITION_INT {time_boot_ms : 74195, lat : -353632620, lon : 1491652373, alt : 624020, relative_alt : 39962, vx : -1, vy : 1, vz : -3, hdg : 35271}
GLOBAL_POSITION_INT {time_boot_ms : 74445, lat : -353632620, lon : 1491652373, alt : 624020, relative_alt : 39963, vx : -1, vy : 1, vz : -3, hdg : 35271}
GLOBAL_POSITION_INT {time_boot_ms : 74695, lat : -353632620, lon : 1491652373, alt : 624020, relative_alt : 39964, vx : -1, vy : 1, vz : -3, hdg : 35271}
GLOBAL_POSITION_INT {time_boot_ms : 74945, lat : -353632620, lon : 1491652373, alt : 624020, relative_alt : 39966, vx : -1, vy : 1, vz : -3, hdg : 35272}
GLOBAL_POSITION_INT {time_boot_ms : 75194, lat : -353632620, lon : 1491652373, alt : 624020, relative_alt : 39968, vx : -1, vy : 1, vz : -3, hdg : 35273}
GLOBAL_POSITION_INT {time_boot_ms : 75445, lat : -353632620, lon : 1491652373, alt : 624020, relative_alt : 39969, vx : -1, vy : 1, vz : -3, hdg : 35271}
GLOBAL_POSITION_INT {time_boot_ms : 75695, lat : -353632620, lon : 1491652373, alt : 624030, relative_alt : 39971, vx : -1, vy : 1, vz : -2, hdg : 35270}
GLOBAL_POSITION_INT {time_boot_ms : 75945, lat : -353632620, lon : 1491652373, alt : 624030, relative_alt : 39973, vx : -1, vy : 1, vz : -2, hdg : 35272}
GLOBAL_POSITION_INT {time_boot_ms : 76195, lat : -353632620, lon : 1491652373, alt : 624030, relative_alt : 39974, vx : -1, vy : 1, vz : -2, hdg : 35273}
GLOBAL_POSITION_INT {time_boot_ms : 76445, lat : -353632620, lon : 1491652373, alt : 624030, relative_alt : 39975, vx : -1, vy : 1, vz : -2, hdg : 35273}
GLOBAL_POSITION_INT {time_boot_ms : 76695, lat : -353632620, lon : 1491652373, alt : 624040, relative_alt : 39981, vx : 2, vy : 5, vz : -10, hdg : 35265}
GLOBAL_POSITION_INT {time_boot_ms : 76945, lat : -353632616, lon : 1491652376, alt : 624090, relative_alt : 40030, vx : 31, vy : 30, vz : -33, hdg : 35204}
GLOBAL_POSITION_INT {time_boot_ms : 77194, lat : -353632603, lon : 1491652390, alt : 624200, relative_alt : 40144, vx : 83, vy : 75, vz : -61, hdg : 35237}
GLOBAL_POSITION_INT {time_boot_ms : 77444, lat : -353632578, lon : 1491652416, alt : 624390, relative_alt : 40330, vx : 135, vy : 120, vz : -90, hdg : 35908}
GLOBAL_POSITION_INT {time_boot_ms : 77695, lat : -353632542, lon : 1491652454, alt : 624640, relative_alt : 40589, vx : 182, vy : 162, vz : -117, hdg : 1360}
GLOBAL_POSITION_INT {time_boot_ms : 77945, lat : -353632497, lon : 1491652503, alt : 624970, relative_alt : 40913, vx : 226, vy : 202, vz : -143, hdg : 3362}
GLOBAL_POSITION_INT {time_boot_ms : 78195, lat : -353632441, lon : 1491652563, alt : 625360, relative_alt : 41302, vx : 270, vy : 241, vz : -168, hdg : 5231}
GLOBAL_POSITION_INT {time_boot_ms : 78445, lat : -353632376, lon : 1491652634, alt : 625810, relative_alt : 41755, vx : 315, vy : 279, vz : -192, hdg : 6302}
GLOBAL_POSITION_INT {time_boot_ms : 78695, lat : -353632300, lon : 1491652715, alt : 626330, relative_alt : 42270, vx : 360, vy : 318, vz : -216, hdg : 6459}
GLOBAL_POSITION_INT {time_boot_ms : 78945, lat : -353632215, lon : 1491652807, alt : 626900, relative_alt : 42846, vx : 405, vy : 357, vz : -239, hdg : 5925}
GLOBAL_POSITION_INT {time_boot_ms : 79194, lat : -353632119, lon : 1491652910, alt : 627520, relative_alt : 43468, vx : 447, vy : 393, vz : -251, hdg : 4978}
GLOBAL_POSITION_INT {time_boot_ms : 79444, lat : -353632016, lon : 1491653021, alt : 628170, relative_alt : 44111, vx : 474, vy : 418, vz : -255, hdg : 3960}
GLOBAL_POSITION_INT {time_boot_ms : 79695, lat : -353631908, lon : 1491653138, alt : 628820, relative_alt : 44762, vx : 487, vy : 433, vz : -253, hdg : 3247}
GLOBAL_POSITION_INT {time_boot_ms : 79945, lat : -353631797, lon : 1491653259, alt : 629460, relative_alt : 45405, vx : 495, vy : 443, vz : -250, hdg : 3024}
GLOBAL_POSITION_INT {time_boot_ms : 80195, lat : -353631685, lon : 1491653382, alt : 630100, relative_alt : 46040, vx : 503, vy : 451, vz : -247, hdg : 3240}
GLOBAL_POSITION_INT {time_boot_ms : 80445, lat : -353631571, lon : 1491653507, alt : 630720, relative_alt : 46669, vx : 512, vy : 456, vz : -245, hdg : 3730}
GLOBAL_POSITION_INT {time_boot_ms : 80695, lat : -353631454, lon : 1491653634, alt : 631350, relative_alt : 47298, vx : 520, vy : 460, vz : -244, hdg : 4271}
GLOBAL_POSITION_INT {time_boot_ms : 80945, lat : -353631335, lon : 1491653761, alt : 631980, relative_alt : 47922, vx : 529, vy : 463, vz : -243, hdg : 4640}
GLOBAL_POSITION_INT {time_boot_ms : 81195, lat : -353631215, lon : 1491653890, alt : 632600, relative_alt : 48546, vx : 537, vy : 466, vz : -243, hdg : 4729}
GLOBAL_POSITION_INT {time_boot_ms : 81444, lat : -353631094, lon : 1491654019, alt : 633230, relative_alt : 49170, vx : 542, vy : 470, vz : -243, hdg : 4564}
GLOBAL_POSITION_INT {time_boot_ms : 81695, lat : -353630971, lon : 1491654150, alt : 633850, relative_alt : 49798, vx : 545, vy : 473, vz : -243, hdg : 4262}
GLOBAL_POSITION_INT {time_boot_ms : 81945, lat : -353630847, lon : 1491654281, alt : 634480, relative_alt : 50423, vx : 546, vy : 477, vz : -243, hdg : 3974}
GLOBAL_POSITION_INT {time_boot_ms : 82195, lat : -353630724, lon : 1491654413, alt : 635100, relative_alt : 51047, vx : 547, vy : 480, vz : -243, hdg : 3807}
GLOBAL_POSITION_INT {time_boot_ms : 82445, lat : -353630601, lon : 1491654546, alt : 635730, relative_alt : 51673, vx : 547, vy : 482, vz : -243, hdg : 3801}
GLOBAL_POSITION_INT {time_boot_ms : 82695, lat : -353630477, lon : 1491654680, alt : 636360, relative_alt : 52301, vx : 547, vy : 482, vz : -243, hdg : 3924}
GLOBAL_POSITION_INT {time_boot_ms : 82945, lat : -353630354, lon : 1491654813, alt : 636980, relative_alt : 52926, vx : 546, vy : 481, vz : -243, hdg : 4099}
GLOBAL_POSITION_INT {time_boot_ms : 83195, lat : -353630231, lon : 1491654946, alt : 637610, relative_alt : 53551, vx : 546, vy : 480, vz : -243, hdg : 4247}
GLOBAL_POSITION_INT {time_boot_ms : 83444, lat : -353630108, lon : 1491655079, alt : 638230, relative_alt : 54175, vx : 546, vy : 478, vz : -243, hdg : 4316}
GLOBAL_POSITION_INT {time_boot_ms : 83694, lat : -353629985, lon : 1491655211, alt : 638850, relative_alt : 54799, vx : 545, vy : 477, vz : -243, hdg : 4297}
GLOBAL_POSITION_INT {time_boot_ms : 83945, lat : -353629861, lon : 1491655343, alt : 639480, relative_alt : 55427, vx : 544, vy : 475, vz : -243, hdg : 4214}
GLOBAL_POSITION_INT {time_boot_ms : 84195, lat : -353629739, lon : 1491655474, alt : 640110, relative_alt : 56053, vx : 542, vy : 475, vz : -243, hdg : 4115}
GLOBAL_POSITION_INT {time_boot_ms : 84445, lat : -353629617, lon : 1491655605, alt : 640730, relative_alt : 56677, vx : 541, vy : 474, vz : -242, hdg : 4040}
GLOBAL_POSITION_INT {time_boot_ms : 84695, lat : -353629495, lon : 1491655737, alt : 641360, relative_alt : 57305, vx : 539, vy : 474, vz : -242, hdg : 4015}
GLOBAL_POSITION_INT {time_boot_ms : 84945, lat : -353629374, lon : 1491655868, alt : 641990, relative_alt : 57930, vx : 538, vy : 473, vz : -242, hdg : 4039}
GLOBAL_POSITION_INT {time_boot_ms : 85195, lat : -353629253, lon : 1491655998, alt : 642610, relative_alt : 58555, vx : 537, vy : 472, vz : -242, hdg : 4091}
GLOBAL_POSITION_INT {time_boot_ms : 85444, lat : -353629132, lon : 1491656128, alt : 643230, relative_alt : 59178, vx : 537, vy : 471, vz : -242, hdg : 4146}
GLOBAL_POSITION_INT {time_boot_ms : 85694, lat : -353629011, lon : 1491656259, alt : 643860, relative_alt : 59802, vx : 537, vy : 470, vz : -242, hdg : 4181}
GLOBAL_POSITION_INT {time_boot_ms : 85945, lat : -353628890, lon : 1491656389, alt : 644480, relative_alt : 60427, vx : 536, vy : 469, vz : -242, hdg : 4186}
GLOBAL_POSITION_INT {time_boot_ms : 86195, lat : -353628769, lon : 1491656519, alt : 645110, relative_alt : 61051, vx : 536, vy : 469, vz : -242, hdg : 4167}
GLOBAL_POSITION_INT {time_boot_ms : 86445, lat : -353628649, lon : 1491656648, alt : 645730, relative_alt : 61672, vx : 536, vy : 469, vz : -242, hdg : 4135}
GLOBAL_POSITION_INT {time_boot_ms : 86695, lat : -353628528, lon : 1491656778, alt : 646350, relative_alt : 62295, vx : 535, vy : 469, vz : -242, hdg : 4105}
GLOBAL_POSITION_INT {time_boot_ms : 86945, lat : -353628407, lon : 1491656908, alt : 646980, relative_alt : 62921, vx : 535, vy : 469, vz : -243, hdg : 4090}
GLOBAL_POSITION_INT {time_boot_ms : 87195, lat : -353628287, lon : 1491657037, alt : 647600, relative_alt : 63544, vx : 534, vy : 468, vz : -243, hdg : 4093}
GLOBAL_POSITION_INT {time_boot_ms : 87445, lat : -353628167, lon : 1491657167, alt : 648220, relative_alt : 64167, vx : 534, vy : 468, vz : -243, hdg : 4108}
GLOBAL_POSITION_INT {time_boot_ms : 87694, lat : -353628046, lon : 1491657296, alt : 648850, relative_alt : 64790, vx : 534, vy : 468, vz : -243, hdg : 4125}
GLOBAL_POSITION_INT {time_boot_ms : 87945, lat : -353627926, lon : 1491657426, alt : 649470, relative_alt : 65415, vx : 534, vy : 468, vz : -243, hdg : 4140}
GLOBAL_POSITION_INT {time_boot_ms : 88195, lat : -353627805, lon : 1491657556, alt : 650090, relative_alt : 66039, vx : 534, vy : 468, vz : -243, hdg : 4145}
GLOBAL_POSITION_INT {time_boot_ms : 88445, lat : -353627686, lon : 1491657684, alt : 650710, relative_alt : 66659, vx : 534, vy : 468, vz : -243, hdg : 4140}
GLOBAL_POSITION_INT {time_boot_ms : 88695, lat : -353627565, lon : 1491657814, alt : 651340, relative_alt : 67282, vx : 534, vy : 468, vz : -243, hdg : 4130}
GLOBAL_POSITION_INT {time_boot_ms : 88945, lat : -353627445, lon : 1491657943, alt : 651960, relative_alt : 67908, vx : 534, vy : 468, vz : -244, hdg : 4119}
GLOBAL_POSITION_INT {time_boot_ms : 89195, lat : -353627325, lon : 1491658072, alt : 652590, relative_alt : 68531, vx : 534, vy : 468, vz : -244, hdg : 4112}
GLOBAL_POSITION_INT {time_boot_ms : 89445, lat : -353627205, lon : 1491658202, alt : 653210, relative_alt : 69154, vx : 534, vy : 468, vz : -244, hdg : 4109}
GLOBAL_POSITION_INT {time_boot_ms : 89694, lat : -353627084, lon : 1491658331, alt : 653830, relative_alt : 69778, vx : 534, vy : 468, vz : -244, hdg : 4112}
GLOBAL_POSITION_INT {time_boot_ms : 89944, lat : -353626964, lon : 1491658460, alt : 654460, relative_alt : 70402, vx : 534, vy : 468, vz : -244, hdg : 4118}
GLOBAL_POSITION_INT {time_boot_ms : 90195, lat : -353626843, lon : 1491658590, alt : 655080, relative_alt : 71026, vx : 534, vy : 468, vz : -244, hdg : 4126}
GLOBAL_POSITION_INT {time_boot_ms : 90445, lat : -353626723, lon : 1491658720, alt : 655700, relative_alt : 71646, vx : 534, vy : 468, vz : -244, hdg : 4130}
GLOBAL_POSITION_INT {time_boot_ms : 90695, lat : -353626603, lon : 1491658849, alt : 656320, relative_alt : 72265, vx : 534, vy : 468, vz : -245, hdg : 4129}
GLOBAL_POSITION_INT {time_boot_ms : 90945, lat : -353626483, lon : 1491658978, alt : 656940, relative_alt : 72888, vx : 534, vy : 468, vz : -245, hdg : 4128}
GLOBAL_POSITION_INT {time_boot_ms : 91195, lat : -353626362, lon : 1491659108, alt : 657570, relative_alt : 73511, vx : 533, vy : 467, vz : -245, hdg : 4127}
GLOBAL_POSITION_INT {time_boot_ms : 91445, lat : -353626242, lon : 1491659237, alt : 658190, relative_alt : 74133, vx : 533, vy : 467, vz : -246, hdg : 4124}
GLOBAL_POSITION_INT {time_boot_ms : 91694, lat : -353626122, lon : 1491659366, alt : 658810, relative_alt : 74757, vx : 533, vy : 467, vz : -246, hdg : 4123}
GLOBAL_POSITION_INT {time_boot_ms : 91944, lat : -353626002, lon : 1491659495, alt : 659440, relative_alt : 75381, vx : 533, vy : 467, vz : -246, hdg : 4123}
GLOBAL_POSITION_INT {time_boot_ms : 92195, lat : -353625881, lon : 1491659625, alt : 660060, relative_alt : 76009, vx : 533, vy : 467, vz : -246, hdg : 4123}
GLOBAL_POSITION_INT {time_boot_ms : 92445, lat : -353625762, lon : 1491659754, alt : 660690, relative_alt : 76634, vx : 533, vy : 467, vz : -246, hdg : 4123}
GLOBAL_POSITION_INT {time_boot_ms : 92695, lat : -353625643, lon : 1491659882, alt : 661310, relative_alt : 77257, vx : 533, vy : 467, vz : -246, hdg : 4124}
GLOBAL_POSITION_INT {time_boot_ms : 92945, lat : -353625523, lon : 1491660010, alt : 661940, relative_alt : 77882, vx : 534, vy : 468, vz : -246, hdg : 4124}
GLOBAL_POSITION_INT {time_boot_ms : 93195, lat : -353625403, lon : 1491660140, alt : 662570, relative_alt : 78510, vx : 534, vy : 468, vz : -246, hdg : 4123}
GLOBAL_POSITION_INT {time_boot_ms : 93445, lat : -353625283, lon : 1491660269, alt : 663190, relative_alt : 79134, vx : 534, vy : 468, vz : -245, hdg : 4122}
GLOBAL_POSITION_INT {time_boot_ms : 93695, lat : -353625163, lon : 1491660398, alt : 663810, relative_alt : 79759, vx : 534, vy : 468, vz : -245, hdg : 4120}
GLOBAL_POSITION_INT {time_boot_ms : 93944, lat : -353625042, lon : 1491660528, alt : 664440, relative_alt : 80384, vx : 534, vy : 469, vz : -245, hdg : 4119}
GLOBAL_POSITION_INT {time_boot_ms : 94195, lat : -353624922, lon : 1491660658, alt : 665070, relative_alt : 81011, vx : 535, vy : 469, vz : -246, hdg : 4120}
GLOBAL_POSITION_INT {time_boot_ms : 94445, lat : -353624801, lon : 1491660787, alt : 665690, relative_alt : 81636, vx : 534, vy : 468, vz : -245, hdg : 4122}
GLOBAL_POSITION_INT {time_boot_ms : 94695, lat : -353624681, lon : 1491660916, alt : 666310, relative_alt : 82259, vx : 534, vy : 468, vz : -245, hdg : 4123}
GLOBAL_POSITION_INT {time_boot_ms : 94945, lat : -353624560, lon : 1491661046, alt : 666940, relative_alt : 82884, vx : 534, vy : 468, vz : -245, hdg : 4124}
GLOBAL_POSITION_INT {time_boot_ms : 95195, lat : -353624440, lon : 1491661176, alt : 667570, relative_alt : 83511, vx : 534, vy : 468, vz : -245, hdg : 4124}
GLOBAL_POSITION_INT {time_boot_ms : 95445, lat : -353624319, lon : 1491661305, alt : 668190, relative_alt : 84136, vx : 533, vy : 467, vz : -245, hdg : 4123}
GLOBAL_POSITION_INT {time_boot_ms : 95695, lat : -353624199, lon : 1491661435, alt : 668820, relative_alt : 84761, vx : 533, vy : 467, vz : -245, hdg : 4123}
GLOBAL_POSITION_INT {time_boot_ms : 95944, lat : -353624079, lon : 1491661564, alt : 669440, relative_alt : 85385, vx : 533, vy : 467, vz : -245, hdg : 4122}
GLOBAL_POSITION_INT {time_boot_ms : 96194, lat : -353623959, lon : 1491661693, alt : 670070, relative_alt : 86010, vx : 533, vy : 467, vz : -245, hdg : 4122}
GLOBAL_POSITION_INT {time_boot_ms : 96445, lat : -353623838, lon : 1491661823, alt : 670690, relative_alt : 86637, vx : 532, vy : 467, vz : -245, hdg : 4122}
GLOBAL_POSITION_INT {time_boot_ms : 96695, lat : -353623718, lon : 1491661952, alt : 671320, relative_alt : 87261, vx : 532, vy : 467, vz : -245, hdg : 4122}
GLOBAL_POSITION_INT {time_boot_ms : 96945, lat : -353623598, lon : 1491662081, alt : 671940, relative_alt : 87884, vx : 532, vy : 467, vz : -245, hdg : 4124}
GLOBAL_POSITION_INT {time_boot_ms : 97195, lat : -353623478, lon : 1491662210, alt : 672570, relative_alt : 88511, vx : 532, vy : 467, vz : -246, hdg : 4125}
GLOBAL_POSITION_INT {time_boot_ms : 97445, lat : -353623358, lon : 1491662339, alt : 673190, relative_alt : 89136, vx : 532, vy : 467, vz : -246, hdg : 4126}
GLOBAL_POSITION_INT {time_boot_ms : 97695, lat : -353623238, lon : 1491662468, alt : 673820, relative_alt : 89761, vx : 532, vy : 467, vz : -245, hdg : 4124}
GLOBAL_POSITION_INT {time_boot_ms : 97944, lat : -353623118, lon : 1491662598, alt : 674440, relative_alt : 90386, vx : 533, vy : 467, vz : -245, hdg : 4122}
GLOBAL_POSITION_INT {time_boot_ms : 98194, lat : -353622998, lon : 1491662727, alt : 675070, relative_alt : 91011, vx : 533, vy : 467, vz : -246, hdg : 4120}
GLOBAL_POSITION_INT {time_boot_ms : 98445, lat : -353622877, lon : 1491662856, alt : 675690, relative_alt : 91637, vx : 533, vy : 467, vz : -246, hdg : 4119}
GLOBAL_POSITION_INT {time_boot_ms : 98695, lat : -353622757, lon : 1491662985, alt : 676320, relative_alt : 92264, vx : 533, vy : 467, vz : -246, hdg : 4120}
GLOBAL_POSITION_INT {time_boot_ms : 98945, lat : -353622637, lon : 1491663114, alt : 676940, relative_alt : 92889, vx : 532, vy : 467, vz : -246, hdg : 4122}
GLOBAL_POSITION_INT {time_boot_ms : 99195, lat : -353622517, lon : 1491663243, alt : 677570, relative_alt : 93517, vx : 528, vy : 463, vz : -246, hdg : 4125}
GLOBAL_POSITION_INT {time_boot_ms : 99445, lat : -353622400, lon : 1491663370, alt : 678200, relative_alt : 94147, vx : 514, vy : 451, vz : -245, hdg : 4126}
GLOBAL_POSITION_INT {time_boot_ms : 99695, lat : -353622286, lon : 1491663493, alt : 678820, relative_alt : 94763, vx : 495, vy : 434, vz : -237, hdg : 4125}
GLOBAL_POSITION_INT {time_boot_ms : 99945, lat : -353622176, lon : 1491663611, alt : 679410, relative_alt : 95354, vx : 474, vy : 416, vz : -225, hdg : 4123}
GLOBAL_POSITION_INT {time_boot_ms : 100194, lat : -353622072, lon : 1491663723, alt : 679970, relative_alt : 95912, vx : 452, vy : 397, vz : -211, hdg : 4121}
GLOBAL_POSITION_INT {time_boot_ms : 100445, lat : -353621972, lon : 1491663831, alt : 680490, relative_alt : 96433, vx : 430, vy : 377, vz : -196, hdg : 4120}
GLOBAL_POSITION_INT {time_boot_ms : 100695, lat : -353621878, lon : 1491663933, alt : 680970, relative_alt : 96917, vx : 406, vy : 356, vz : -182, hdg : 4119}
GLOBAL_POSITION_INT {time_boot_ms : 100945, lat : -353621789, lon : 1491664029, alt : 681420, relative_alt : 97364, vx : 383, vy : 335, vz : -168, hdg : 4120}
GLOBAL_POSITION_INT {time_boot_ms : 101195, lat : -353621705, lon : 1491664119, alt : 681830, relative_alt : 97776, vx : 358, vy : 313, vz : -155, hdg : 4122}
